City_ID,City,Lat,Lng,Max Temp,Humidity,Cloudiness,Wind Speed,Country,Date
0,puerto natales,-51.7236,-72.4875,278.64,82,98,7.66,CL,1691247143
1,tolanaro,-25.0319,46.9987,296.19,60,40,8.23,MG,1691246861
2,ramadi,33.4226,43.3058,315.99,11,0,4.98,IQ,1691247144
3,edinburgh of the seven seas,-37.0676,-12.3116,286.3,80,7,13.74,SH,1691247144
4,carnarvon,-24.8667,113.6333,292.52,78,0,4.12,AU,1691247145
5,rafsanjan,30.4067,55.9939,307.24,9,6,7.34,IR,1691247145
6,adamstown,-25.066,-130.1015,291.28,53,3,2.71,PN,1691247145
7,grytviken,-54.2811,-36.5092,269.16,81,85,4.88,GS,1691247145
8,port-aux-francais,-49.35,70.2167,275.59,72,100,15.09,TF,1691247146
9,blackmans bay,-43.0167,147.3167,282.22,85,76,2.74,AU,1691246923
10,galesong,-5.3166,119.3661,297.16,77,7,3.84,ID,1691247146
11,west island,-12.1568,96.8225,299.14,83,100,9.77,CC,1691247151
12,zhaotong,27.3167,103.7167,291.34,93,99,0.52,CN,1691247152
13,kapuskasing,49.4169,-82.4331,292.2,68,0,2.06,CA,1691247152
14,paciran,-6.8767,112.3761,299.2,78,15,3.23,ID,1691247152
15,tvoroyri,61.5556,-6.8111,284.61,83,85,0.81,FO,1691247152
16,port elizabeth,-33.918,25.5701,296.31,46,0,1.03,ZA,1691247153
17,talara,-4.5772,-81.2719,298.57,65,0,7.48,PE,1691247153
18,iqaluit,63.7506,-68.5145,283.0,81,20,3.09,CA,1691247153
19,al qusayr,34.5091,36.5798,305.06,33,0,8.54,SY,1691247154
20,st. john's,47.5649,-52.7093,292.75,76,75,2.57,CA,1691247128
21,vilyuchinsk,52.9306,158.4028,286.3,85,0,3.52,RU,1691246988
22,al wasitah,29.3378,31.2056,313.15,11,0,5.73,EG,1691247154
23,kingston,17.997,-76.7936,307.17,66,20,4.12,JM,1691247074
24,trevelin,-43.0858,-71.4639,272.86,75,9,1.08,AR,1691247155
25,nar'yan-mar,67.6713,53.087,297.72,59,99,4.45,RU,1691247155
26,puerto ayora,-0.7393,-90.3518,300.13,92,43,3.58,EC,1691247032
27,touros,-5.1989,-35.4608,301.49,64,91,7.1,BR,1691247156
28,bilibino,68.0546,166.4372,277.77,94,100,2.51,RU,1691247156
29,sitka,57.0531,-135.33,290.09,82,75,0.0,US,1691247156
30,crane,31.3974,-102.3501,303.05,38,2,8.25,US,1691247156
31,port mathurin,-19.6833,63.4167,296.19,73,16,10.89,MU,1691246924
32,talnakh,69.4865,88.3972,293.82,49,6,0.98,RU,1691246931
33,margaret river,-33.95,115.0667,282.62,83,100,1.79,AU,1691247157
34,invercargill,-46.4,168.35,278.72,94,71,2.24,NZ,1691246925
35,yamada,39.4667,141.95,298.19,88,11,2.49,JP,1691247158
36,zheleznodorozhnyy,55.7503,38.0042,303.25,43,15,2.0,RU,1691247158
37,soto la marina,23.7667,-98.2167,305.71,47,3,3.96,MX,1691247158
38,camrose,53.0168,-112.8353,289.77,79,0,3.88,CA,1691247159
39,westport,41.1415,-73.3579,300.87,69,0,2.57,US,1691247159
40,georgetown,5.4112,100.3354,301.11,92,20,2.24,MY,1691246995
41,isafjordur,66.0755,-23.124,284.17,66,20,3.09,IS,1691247159
42,waitangi,-43.9535,-176.5597,279.16,80,100,2.24,NZ,1691246922
43,yellowknife,62.456,-114.3525,288.46,82,20,2.57,CA,1691247160
44,colonia,50.9333,6.95,292.51,83,20,3.09,DE,1691247155
45,jamestown,42.097,-79.2353,295.94,81,40,2.57,US,1691246996
46,tateyama,34.9833,139.8667,300.18,86,0,5.16,JP,1691247161
47,ascension,30.2169,-90.9001,305.41,76,40,3.6,US,1691247161
48,coahuayana de hidalgo,18.7,-103.6583,301.57,64,100,0.95,MX,1691247161
49,shevchenko,48.5,35.0,308.91,24,5,4.38,UA,1691247161
50,kovdor,67.5662,30.4758,291.53,75,97,3.58,RU,1691247161
51,kill devil hills,36.0307,-75.676,298.7,88,100,3.6,US,1691246911
52,shumikha,55.2261,63.2961,296.61,57,100,2.3,RU,1691247162
53,borogontsy,62.6683,131.1683,289.29,61,97,0.04,RU,1691247162
54,greenville,35.6127,-77.3663,299.16,92,75,3.09,US,1691247163
55,ust-nera,64.5667,143.2,285.19,59,80,1.0,RU,1691246952
56,hadibu,12.65,54.0333,299.6,76,51,8.16,YE,1691246902
57,thompson,55.7435,-97.8558,290.24,88,75,5.14,CA,1691247131
58,papatowai,-46.5619,169.4708,278.57,88,74,3.12,NZ,1691246936
59,ancud,-41.8697,-73.8203,280.39,76,43,1.68,CL,1691247164
60,bethel,41.3712,-73.414,299.81,70,0,2.06,US,1691247164
61,ushuaia,-54.8,-68.3,274.96,93,75,4.63,AR,1691247164
62,kerikeri,-35.2268,173.9474,283.18,89,44,0.58,NZ,1691247165
63,hithadhoo,-0.6,73.0833,300.97,71,100,1.54,MV,1691247165
64,albany,42.6001,-73.9662,296.58,79,5,0.45,US,1691247165
65,concepcion,-36.827,-73.0498,283.04,66,75,5.14,CL,1691247166
66,fale old settlement,-9.3852,-171.2468,300.71,80,27,5.13,TK,1691246869
67,cabo san lucas,22.8909,-109.9124,303.49,71,92,1.71,MX,1691246922
68,palangkaraya,-2.2,113.8333,298.66,84,68,1.41,ID,1691247166
69,dudinka,69.4058,86.1778,294.05,53,2,3.71,RU,1691246927
70,iskateley,67.6803,53.1512,297.59,59,99,4.34,RU,1691246935
71,hafar al-batin,28.4328,45.9708,317.47,6,0,4.12,SA,1691247167
72,pangody,65.85,74.4859,295.79,45,70,1.98,RU,1691247167
73,dalhart,36.0595,-102.5133,296.16,73,0,6.17,US,1691246919
74,bakchar,57.0186,82.0711,289.91,63,0,3.07,RU,1691247168
75,lincoln city,44.9582,-124.0179,289.24,97,100,2.4,US,1691247168
76,naze,28.3667,129.4833,298.66,95,100,14.11,JP,1691247168
77,kassala,15.451,36.4,302.87,54,68,5.31,SD,1691247041
78,grand falls-windsor,48.9332,-55.6649,297.32,50,88,1.79,CA,1691247169
79,kokopo,-4.352,152.2633,298.35,75,97,7.45,PG,1691247169
80,cidade velha,14.9167,-23.6167,304.41,58,20,8.23,CV,1691247169
81,tura,25.5198,90.2201,297.53,97,100,2.91,IN,1691247170
82,college,64.8569,-147.8028,291.37,82,40,0.0,US,1691247170
83,saudarkrokur,65.7461,-19.6394,285.44,68,47,2.44,IS,1691247170
84,eduardo castex,-35.915,-64.2945,289.25,36,29,8.11,AR,1691247170
85,saipan,15.1355,145.701,300.73,100,0,0.0,MP,1691247171
86,bredasdorp,-34.5322,20.0403,289.87,71,73,2.76,ZA,1691247171
87,tukrah,32.5341,20.5791,305.29,41,0,2.66,LY,1691247171
88,qui nhon,13.7667,109.2333,301.17,71,8,2.64,VN,1691247172
89,stanley,54.868,-1.6985,287.11,86,75,5.66,GB,1691247172
90,laojunmiao,39.8333,97.7333,297.18,30,23,2.15,CN,1691247172
91,uturoa,-16.7333,-151.4333,298.86,72,29,3.1,PF,1691246932
92,bomdila,27.25,92.4,289.46,100,100,1.2,IN,1691247173
93,sangsong-ni,39.1694,126.8856,295.55,97,90,0.49,KP,1691247173
94,pisco,-13.7,-76.2167,293.18,73,100,1.54,PE,1691246898
95,wailua homesteads,22.0669,-159.378,298.59,83,20,5.14,US,1691246927
96,tell city,37.9514,-86.7678,298.1,100,0,3.6,US,1691247174
97,edgerton,42.8353,-89.0676,297.41,54,97,3.49,US,1691247174
98,akwatia,6.0402,-0.8088,300.93,75,81,2.17,GH,1691247174
99,ilulissat,69.2167,-51.1,281.16,71,75,2.06,GL,1691247174
100,qamdo,31.1667,97.2333,281.3,94,100,3.32,CN,1691247175
101,rio grande,-32.035,-52.0986,291.21,60,0,3.32,BR,1691247175
102,udachny,66.4167,112.4,286.18,81,100,7.15,RU,1691247175
103,brookings,44.3114,-96.7984,297.73,87,0,4.63,US,1691247088
104,chauk,20.8833,94.8167,301.56,69,100,7.98,MM,1691247176
105,antsiranana,-12.2787,49.2917,300.57,47,20,7.2,MG,1691247176
106,hermanus,-34.4187,19.2345,288.6,76,96,1.79,ZA,1691247176
107,namibe,-15.1961,12.1522,295.09,62,0,3.96,AO,1691247177
108,flying fish cove,-10.4217,105.6791,297.97,94,100,6.69,CX,1691246948
109,al bayda',32.7627,21.7551,303.27,36,0,4.25,LY,1691247177
110,ribeirao branco,-24.2208,-48.7656,298.6,30,0,2.28,BR,1691247179
111,alice springs,-23.7,133.8833,285.9,71,0,1.03,AU,1691247179
112,constantia,44.1833,28.65,304.65,67,0,5.63,RO,1691247179
113,helong,42.5397,128.9972,294.21,99,100,0.37,CN,1691247180
114,mitsamiouli,-11.3847,43.2844,303.31,48,20,4.63,KM,1691247180
115,jacmel,18.2342,-72.5347,305.06,63,20,3.57,HT,1691247180
116,weno,7.4515,151.8468,300.12,89,100,2.06,FM,1691247180
117,nadi,-17.8,177.4167,294.15,88,75,0.0,FJ,1691246931
118,lhasa,29.65,91.1,284.81,88,100,1.05,CN,1691247181
119,punta arenas,-53.15,-70.9167,277.66,91,100,11.24,CL,1691247181
120,tiksi,71.6872,128.8694,275.46,93,100,4.2,RU,1691247182
121,petropavlovsk-kamchatsky,53.0452,158.6483,285.48,94,75,2.0,RU,1691247036
122,olonkinbyen,70.9221,-8.7187,276.77,91,100,9.93,SJ,1691247182
123,hawaiian paradise park,19.5933,-154.9731,293.72,87,75,3.09,US,1691247182
124,atafu village,-8.5421,-172.5159,300.82,79,70,4.09,TK,1691246883
125,payson,40.0444,-111.7321,296.09,57,40,2.57,US,1691247183
126,greymouth,-42.4667,171.2,282.16,93,100,1.27,NZ,1691247183
127,axim,4.8699,-2.2405,299.02,80,73,4.5,GH,1691247184
128,ribeira grande,38.5167,-28.7,298.37,73,40,4.63,PT,1691247184
129,minas de marcona,-15.2119,-75.1103,288.75,64,20,2.62,PE,1691246944
130,mulayjah,27.271,48.4242,314.27,14,9,4.76,SA,1691247184
131,mili,6.0815,171.735,301.39,78,28,6.26,MH,1691247185
132,avarua,-21.2078,-159.775,295.18,78,75,2.57,CK,1691247185
133,san juan,-31.5375,-68.5364,291.9,29,0,3.48,AR,1691246981
134,howard springs,-12.497,131.047,300.1,51,6,2.33,AU,1691247186
135,qaqortoq,60.7167,-46.0333,280.62,74,6,2.61,GL,1691246928
136,vorgashor,67.5833,63.95,295.88,50,0,4.18,RU,1691247186
137,shangrao,28.4532,117.9686,301.46,84,11,1.17,CN,1691247186
138,afaahiti,-17.75,-149.2833,294.08,76,8,1.78,PF,1691247187
139,mejit,10.2753,170.8646,301.04,69,100,7.12,MH,1691247187
140,kulob,37.9145,69.783,306.57,27,0,2.0,TJ,1691247187
141,marondera,-18.1853,31.5519,289.8,41,87,3.3,ZW,1691247188
142,yuzhno-kurilsk,44.0306,145.8556,285.94,94,100,4.61,RU,1691247188
143,longyearbyen,78.2186,15.6401,285.06,87,75,5.14,SJ,1691247188
144,galliano,29.4422,-90.2992,305.93,62,0,3.09,US,1691247188
145,klyuchi,52.2667,79.1667,295.12,63,100,2.18,RU,1691247189
146,lindsay,36.203,-119.0882,297.01,64,0,2.57,US,1691247189
147,krasnyy kholm,58.0607,37.1203,296.13,67,77,2.09,RU,1691247189
148,taichung,24.1469,120.6839,302.31,85,75,6.69,TW,1691247119
149,saint-pierre,-21.3393,55.4781,294.97,78,20,9.77,RE,1691247190
150,enewetak,11.3474,162.3373,301.41,79,73,5.71,MH,1691247190
151,polyarnyy,69.1989,33.4478,284.39,95,100,7.43,RU,1691247191
152,franceville,-1.6333,13.5836,304.4,58,75,0.88,GA,1691247191
153,banda aceh,5.5577,95.3222,300.43,79,95,1.31,ID,1691247191
154,inhambane,-23.865,35.3833,296.14,73,40,3.6,MZ,1691247191
155,palmital,-22.7889,-50.2175,300.44,28,0,3.03,BR,1691247192
156,pacific grove,36.6177,-121.9166,286.29,95,100,3.6,US,1691246894
157,kiunga,-6.1219,141.2906,294.55,94,100,0.76,PG,1691247192
158,mitu,1.1983,-70.1733,302.06,64,100,0.52,CO,1691247193
159,kokstad,-30.5472,29.4241,288.82,30,0,1.99,ZA,1691247193
160,acarau,-2.8856,-40.12,304.1,54,80,7.47,BR,1691247193
161,eydhafushi,5.1033,73.0708,301.07,79,85,4.91,MV,1691247193
162,hampton bays,40.869,-72.5176,300.9,79,40,2.06,US,1691246921
163,micheweni,-4.9667,39.8333,298.56,77,40,5.08,TZ,1691247194
164,illizi,26.4833,8.4667,319.04,6,0,5.99,DZ,1691247194
165,aitape,-3.1374,142.3475,297.54,91,99,1.94,PG,1691247195
166,saint-joseph,-21.3667,55.6167,294.36,83,52,7.69,RE,1691247195
167,hamilton,39.1834,-84.5333,302.58,69,0,3.6,US,1691247195
168,yanchep,-31.55,115.6833,285.16,77,94,2.94,AU,1691247196
169,benghazi,32.1167,20.0667,303.95,49,0,2.4,LY,1691247196
170,lebu,-37.6167,-73.65,284.58,62,100,1.28,CL,1691247197
171,anadyr,64.75,177.4833,284.43,81,40,7.0,RU,1691247197
172,puerto baquerizo moreno,-0.9,-89.6,297.7,94,75,6.17,EC,1691247197
173,ingeniero guillermo n. juarez,-23.9,-61.85,303.54,28,0,4.41,AR,1691247198
174,buka,40.8108,69.1986,304.09,18,0,4.08,UZ,1691247198
175,fort mcmurray,56.7268,-111.381,285.92,94,20,4.12,CA,1691247198
176,badger,64.8,-147.5333,291.32,84,75,0.0,US,1691247199
177,bamboo flat,11.7,92.7167,301.2,89,40,4.12,IN,1691247199
178,san patricio,28.017,-97.5169,304.55,54,30,5.93,US,1691247199
179,kwali,8.8672,7.005,303.09,71,93,2.42,NG,1691247200
180,nurlat,54.4277,50.8051,301.31,43,87,3.63,RU,1691247200
181,linhares,-19.3911,-40.0722,301.31,45,3,2.47,BR,1691247200
182,tra vinh,9.9347,106.3453,298.8,88,52,2.64,VN,1691247201
183,ust-tsilma,65.441,52.1498,293.43,84,77,2.02,RU,1691247201
184,brandfort,-28.7001,26.4597,292.82,15,0,2.98,ZA,1691247202
185,east london,-33.0153,27.9116,296.67,43,0,3.6,ZA,1691247202
186,kurumkan,54.3,110.3,290.83,74,100,1.01,RU,1691247202
187,martapura,-3.4167,114.85,299.2,89,40,4.12,ID,1691247202
188,uglegorsk,49.0833,142.0333,286.86,94,100,1.0,RU,1691247203
189,porto murtinho,-21.6989,-57.8825,308.45,18,0,3.21,BR,1691247203
190,kodiak,57.79,-152.4072,281.88,93,40,0.0,US,1691246925
191,choyr,46.3611,108.3611,291.6,66,99,2.0,MN,1691246980
192,garoowe,8.4054,48.4845,306.33,29,96,10.57,SO,1691247204
193,porto novo,6.4965,2.6036,301.05,66,87,5.35,BJ,1691246977
194,chonchi,-42.6128,-73.8092,281.55,83,32,2.35,CL,1691247204
195,al majaridah,19.1236,41.9111,310.28,28,100,4.73,SA,1691247205
196,murghob,38.1702,73.9667,289.17,43,93,2.5,TJ,1691247205
197,san antonio de pale,-1.4014,5.6325,296.0,80,96,5.14,GQ,1691247205
198,port alfred,-33.5906,26.891,296.58,55,0,0.89,ZA,1691247206
199,paracuru,-3.41,-39.0306,301.54,52,100,6.99,BR,1691247206
200,gulf shores,30.246,-87.7008,306.8,68,75,4.12,US,1691247206
201,codrington,-38.2667,141.9667,283.44,75,95,2.08,AU,1691247206
202,labrador city,52.9463,-66.9114,287.1,94,100,4.12,CA,1691246947
203,tamanrasset,22.785,5.5228,310.1,14,40,6.17,DZ,1691247207
204,queenstown,-31.8976,26.8753,292.37,26,0,0.43,ZA,1691247207
205,ko samui,9.5357,99.9357,303.1,74,20,1.54,TH,1691246977
206,dhidhdhoo,6.8833,73.1,301.71,76,99,6.01,MV,1691247208
207,extrema,-22.8547,-46.3183,300.68,20,0,1.18,BR,1691247208
208,kimbe,-5.5502,150.1429,297.7,75,94,5.0,PG,1691247209
209,serdar,38.9764,56.2757,310.89,31,27,4.66,TM,1691247209
210,machico,32.7,-16.7667,301.32,62,20,7.72,PT,1691247209
211,port saint john's,-31.6229,29.5448,294.97,58,0,4.92,ZA,1691247209
212,mokhsogollokh,61.4681,128.9203,288.86,57,99,1.07,RU,1691247211
213,mount gambier,-37.8333,140.7667,280.72,90,92,1.13,AU,1691247211
214,hobyo,5.3505,48.5268,299.1,78,59,11.33,SO,1691247212
215,sao joao da barra,-21.6403,-41.0511,298.2,71,3,3.42,BR,1691247212
216,mwinilunga,-11.7358,24.4293,299.03,20,0,3.41,ZM,1691247212
217,gadzhiyevo,69.2551,33.3362,284.33,93,100,7.55,RU,1691247212
218,tete,-16.1564,33.5867,300.2,50,75,4.63,MZ,1691247213
219,aasiaat,68.7098,-52.8699,274.97,93,66,2.75,GL,1691247213
220,zapolyarnyy,69.4154,30.8136,285.75,88,100,5.48,RU,1691247213
221,prince rupert,54.3161,-130.3201,288.98,86,75,2.06,CA,1691247214
222,bikenibeu village,1.3673,173.1241,301.13,83,40,2.06,KI,1691247214
223,kununurra,-15.7667,128.7333,298.14,36,3,3.09,AU,1691247214
224,san pedro,14.35,121.0167,301.72,87,75,7.2,PH,1691247214
225,novodvinsk,64.4165,40.8122,292.93,86,13,3.41,RU,1691247215
226,chizhou,30.6578,117.4831,301.92,79,4,1.62,CN,1691247215
227,dire,12.2833,-10.9667,306.1,55,78,1.01,ML,1691247215
228,bloomfield,40.8068,-74.1854,301.66,64,0,3.6,US,1691247215
229,bishkek,42.87,74.59,302.26,25,95,2.42,KG,1691247144
230,lata,40.1629,-8.3327,302.64,16,0,5.46,PT,1691247216
231,usogorsk,63.4106,48.6872,294.69,76,98,1.5,RU,1691247216
232,caleta de carquin,-11.0925,-77.6267,293.48,68,41,2.81,PE,1691247216
233,sandnessjoen,66.0217,12.6316,288.44,67,75,2.57,NO,1691247217
234,castillos,-34.1667,-53.8333,287.53,46,0,2.77,UY,1691247217
235,vadso,70.0744,29.7487,288.24,67,100,4.63,NO,1691247217
236,lompoc,34.6391,-120.4579,291.36,100,100,3.09,US,1691246938
237,kalmunai,7.4167,81.8167,301.16,80,57,0.55,LK,1691247218
238,veinticinco de mayo,-35.4323,-60.1727,288.7,51,1,4.02,AR,1691247218
239,nagamangala,12.8156,76.7575,296.69,73,72,5.86,IN,1691247218
240,constitucion,-35.3333,-72.4167,286.09,81,100,3.78,CL,1691247216
241,viedma,-40.8135,-62.9967,285.28,25,100,7.5,AR,1691246933
242,muscat,23.6139,58.5922,304.16,66,20,0.93,OM,1691247196
243,san mateo del mar,16.2,-95.0,302.57,66,100,9.82,MX,1691247221
244,show low,34.2542,-110.0298,299.31,25,0,0.0,US,1691247221
245,meiganga,6.5167,14.3,298.1,78,93,2.01,CM,1691247221
246,el kala,36.8956,8.4433,299.38,59,88,7.73,DZ,1691247221
247,dzerzhinskoye,56.8344,95.2283,285.04,70,3,2.17,RU,1691247222
248,kone,-21.0595,164.8658,290.9,86,67,3.08,NC,1691246924
249,newman,37.3138,-121.0208,293.23,71,0,0.89,US,1691247222
250,onega,63.9061,38.1404,291.5,86,37,4.13,RU,1691247222
251,port lincoln,-34.7333,135.8667,283.92,63,72,2.28,AU,1691247223
252,alesund,62.4723,6.1549,288.65,68,75,3.09,NO,1691247223
253,kapa'a,22.0752,-159.319,299.33,82,20,5.14,US,1691246948
254,poronaysk,49.2167,143.1167,287.1,91,100,0.53,RU,1691247223
255,coruripe,-10.1256,-36.1756,298.66,75,45,4.34,BR,1691247224
256,salekhard,66.53,66.6019,297.51,50,0,3.55,RU,1691247224
257,ruteng,-8.6136,120.4721,289.52,92,96,0.85,ID,1691247224
258,muang xay,20.7,101.9833,294.29,99,100,1.56,LA,1691247225
259,vernon,50.2581,-119.2691,293.87,51,53,3.6,CA,1691246973
260,sonderborg,54.9093,9.8074,295.27,72,75,4.63,DK,1691247225
261,orizona,-17.0314,-48.2958,302.64,18,72,3.18,BR,1691247225
262,geneina,13.45,22.45,297.57,69,100,0.2,SD,1691247226
263,puerto cabezas,14.0351,-83.3888,303.13,84,40,3.09,NI,1691247226
264,algona,43.07,-94.233,296.2,78,20,5.66,US,1691247226
265,iwanai,42.9744,140.5089,296.0,99,100,0.54,JP,1691247226
266,north bend,43.4065,-124.2243,290.88,100,100,0.0,US,1691247227
267,acapulco de juarez,16.8634,-99.8901,300.05,74,40,3.09,MX,1691246986
268,sao desiderio,-12.3633,-44.9733,308.76,20,2,1.02,BR,1691247198
269,salalah,17.0151,54.0924,299.2,94,100,4.12,OM,1691247057
270,ceeldheer,3.8488,47.1806,299.37,73,46,10.11,SO,1691247227
271,jodhpur,26.2867,73.03,304.36,57,95,7.87,IN,1691247228
272,new norfolk,-42.7826,147.0587,282.87,93,95,1.48,AU,1691247228
273,arno,60.1167,18.6333,290.81,68,68,4.01,SE,1691247228
274,lospalos,-8.5186,127.0025,293.7,83,32,3.11,TL,1691246934
275,tambopata,-12.7333,-69.1833,301.09,74,0,0.51,PE,1691247229
276,nadym,65.5333,72.5167,296.23,41,17,3.7,RU,1691247229
277,olyokminsk,60.3736,120.4264,291.19,84,98,2.34,RU,1691247229
278,nova sintra,14.8667,-24.7167,295.95,80,23,7.08,CV,1691246937
279,rikaze,29.25,88.8833,286.36,71,100,0.55,CN,1691247230
280,rosarito,32.3333,-117.0333,293.69,79,19,0.81,MX,1691247230
281,howrah,22.5892,88.3103,302.15,79,75,4.12,IN,1691246993
282,kruisfontein,-34.0033,24.7314,296.58,38,7,1.74,ZA,1691247231
283,retreat,38.8245,-85.8533,299.12,49,73,3.5,US,1691247231
284,jayapura,-2.5333,140.7,297.81,88,85,2.48,ID,1691247231
285,ghanzi,-21.5667,21.7833,296.49,19,0,4.83,BW,1691247232
286,labytnangi,66.6572,66.4183,297.23,49,0,3.13,RU,1691247232
287,callao,-12.0667,-77.15,295.22,68,100,2.57,PE,1691247232
288,taltal,-25.4,-70.4833,290.08,70,7,2.8,CL,1691247232
289,wamba,8.9333,8.6,300.11,79,98,2.05,NG,1691247233
290,kaa-khem,51.6833,94.7333,292.03,64,54,1.78,RU,1691247233
291,tazovsky,67.4667,78.7,290.08,66,7,2.53,RU,1691247233
292,bucerias,20.75,-105.3333,299.81,100,100,2.06,MX,1691247233
293,nehe,48.4833,124.8333,286.84,83,7,1.22,CN,1691247234
294,perevolotskiy,51.8763,54.1938,302.43,35,30,4.13,RU,1691247234
295,plettenberg bay,-34.0527,23.3716,291.8,63,9,1.46,ZA,1691247234
296,deming,32.2687,-107.7586,297.09,35,0,0.0,US,1691247155
297,lorengau,-2.0226,147.2712,300.52,77,99,4.76,PG,1691247235
298,arraial do cabo,-22.9661,-42.0278,297.13,69,20,5.66,BR,1691247022
299,nizhniy kuranakh,58.8353,125.4869,287.42,79,50,0.88,RU,1691247235
300,alofi,-19.0595,-169.9187,295.09,100,100,2.06,NU,1691247235
301,ocean shores,46.9737,-124.1563,290.15,96,100,2.68,US,1691247235
302,vinsady,44.0808,42.9653,304.29,35,0,7.0,RU,1691247236
303,luganville,-15.5333,167.1667,296.06,88,92,1.91,VU,1691247236
304,hasaki,35.7333,140.8333,301.1,88,0,5.68,JP,1691247236
305,keflavik,64.0049,-22.5624,287.1,82,100,6.69,IS,1691246946
306,yelizovo,53.1873,158.3805,286.23,93,75,2.0,RU,1691247237
307,neftegorsk,52.802,51.166,304.94,32,59,2.77,RU,1691247237
308,temerluh,3.4506,102.4176,298.14,97,28,0.59,MY,1691247237
309,bubaque,11.2833,-15.8333,300.82,78,97,1.85,GW,1691246960
310,birao,10.2849,22.7882,301.51,70,100,2.22,CF,1691247238
311,lihue,21.9789,-159.3672,298.92,81,20,5.14,US,1691246976
312,island harbour,50.724,-1.2758,292.55,93,78,2.24,GB,1691247238
313,doka,13.5167,35.7667,298.07,75,100,6.14,SD,1691247239
314,belel,7.05,14.4333,294.04,87,100,1.79,CM,1691247239
315,garissa,-0.4536,39.6401,303.83,39,88,8.79,KE,1691247239
316,aykhal,66.0,111.5,287.35,61,99,9.52,RU,1691247239
317,chipata,-13.6333,32.65,295.24,39,83,3.56,ZM,1691247240
318,lazaro cardenas,17.9583,-102.2,300.57,72,100,2.18,MX,1691247240
319,hilo,19.7297,-155.09,295.53,87,75,3.13,US,1691246980
320,hengchun,22.0042,120.7439,301.51,87,100,11.62,TW,1691247240
321,yueyang,29.3333,113.0919,304.09,64,1,2.84,CN,1691247054
322,durango,24.8333,-104.8333,296.53,33,62,2.37,MX,1691247064
323,tenno,39.9,139.9667,300.07,80,28,1.63,JP,1691247241
324,prado,-17.3411,-39.2208,298.47,54,0,2.72,BR,1691247243
325,florence,43.7667,11.25,298.41,61,40,2.57,IT,1691247203
326,cooper's town,26.8667,-77.5167,302.45,73,11,5.89,BS,1691247243
327,anzio,41.4853,12.6179,297.05,54,49,8.72,IT,1691247243
328,primero de mayo,-32.2552,-58.4228,292.72,58,3,5.24,AR,1691247244
329,nemuro,43.3236,145.575,287.03,96,100,3.18,JP,1691246954
330,belmonte,-15.8631,-38.8828,299.14,50,0,2.54,BR,1691247244
331,geraldton,-28.7667,114.6,283.38,93,99,2.06,AU,1691246984
332,fortuna,40.5982,-124.1573,289.34,96,100,0.0,US,1691247065
333,portland,45.5234,-122.6762,294.11,82,100,1.34,US,1691247088
334,as sulayyil,20.4607,45.5779,317.29,8,98,1.24,SA,1691247245
335,mount pearl,47.5166,-52.7813,292.29,76,75,2.57,CA,1691246947
336,pitimbu,-7.4706,-34.8086,302.48,70,25,4.69,BR,1691247246
337,koforidua,6.0941,-0.2591,301.04,71,86,3.39,GH,1691247246
338,krasne,49.9145,24.6134,303.13,47,0,4.78,UA,1691247247
339,bardai,11.65,7.2333,300.43,68,99,4.08,NG,1691247247
340,breckenridge,32.7557,-98.9023,306.6,40,0,4.63,US,1691247247
341,mhamid,29.82,-5.72,318.68,5,0,4.89,MA,1691247247
342,eyl,7.9803,49.8164,299.54,75,73,13.01,SO,1691247248
343,wagar,16.1525,36.2032,303.75,56,84,11.07,SD,1691247248
344,holualoa,19.6228,-155.9522,295.25,82,100,3.09,US,1691247249
345,pachino,36.7186,15.0907,300.12,54,0,13.62,IT,1691247249
346,vennesla,58.2694,7.9741,293.01,51,20,8.23,NO,1691247249
347,giddings,30.1827,-96.9364,304.55,66,0,4.12,US,1691247249
348,whitehorse,60.7161,-135.0538,287.58,67,75,3.09,CA,1691247250
349,varzea da palma,-17.5981,-44.7308,304.99,20,56,0.85,BR,1691247194
350,gaalkacyo,6.7697,47.4308,305.64,35,90,11.87,SO,1691247251
351,kargil,34.5667,76.1,293.09,43,61,4.39,IN,1691247251
352,mar del plata,-38.0023,-57.5575,284.79,70,40,4.12,AR,1691247251
353,fort bragg,35.139,-79.006,300.27,78,40,3.58,US,1691247094
354,san fernando,15.0286,120.6898,302.0,88,73,1.87,PH,1691247252
355,al ghayzah,16.2079,52.176,300.48,78,69,6.14,YE,1691247252
356,mahina,-17.5065,-149.489,295.02,83,20,2.06,PF,1691247252
357,chaman,30.9236,66.4512,306.57,8,2,4.1,PK,1691247252
358,pomorie,42.5588,27.6439,301.39,74,75,7.72,BG,1691247253
359,cuenca,-2.8833,-78.9833,289.22,67,75,1.54,EC,1691247253
360,sakakah,29.9697,40.2064,312.91,9,0,6.16,SA,1691247253
361,sechura,-5.5569,-80.8222,297.18,63,4,5.3,PE,1691247254
362,at-bashi,41.1702,75.8106,292.55,31,27,1.97,KG,1691247254
363,piacabucu,-10.4056,-36.4344,299.07,72,44,4.09,BR,1691247198
364,bainbridge,47.6262,-122.5212,292.84,83,0,1.54,US,1691247012
365,arauco,-37.2463,-73.3175,285.19,57,100,1.26,CL,1691247255
366,remire-montjoly,4.9167,-52.2667,304.17,62,40,2.57,GF,1691247255
367,yarega,63.4354,53.5765,292.06,94,99,1.21,RU,1691247255
368,almenara,-16.1836,-40.6944,302.24,36,0,1.97,BR,1691247256
369,gaiman,-43.2897,-65.4929,284.42,34,35,6.84,AR,1691247256
370,khilok,51.3674,110.4676,287.0,97,90,1.72,RU,1691247256
371,luang prabang,19.8856,102.1347,295.54,100,100,1.05,LA,1691247256
372,quellon,-43.1167,-73.6167,281.29,87,100,3.09,CL,1691247257
373,summerside,46.3959,-63.7876,294.22,83,100,7.2,CA,1691247257
374,hammerfest,70.6634,23.6821,285.4,76,100,5.14,NO,1691247257
375,sortavala,61.7053,30.6918,293.45,73,61,4.03,RU,1691247258
376,sisimiut,66.9395,-53.6735,280.6,75,14,3.08,GL,1691247258
377,trairi,-3.2778,-39.2689,303.81,48,100,6.58,BR,1691247193
378,huinan,42.6225,126.2614,290.26,87,100,2.04,CN,1691247258
379,egilsstadir,65.2653,-14.3948,288.1,44,20,6.17,IS,1691247259
380,richards bay,-28.783,32.0377,293.97,67,93,5.64,ZA,1691247259
381,camarinas,43.1311,-9.1817,301.44,78,5,5.53,ES,1691247259
382,burutu,5.3509,5.5076,301.01,73,82,6.37,NG,1691247259
383,peace river,56.2501,-117.286,291.29,90,20,0.0,CA,1691247260
384,kavieng,-2.5744,150.7967,300.31,79,32,4.66,PG,1691247260
385,broken hill,-31.95,141.4333,280.33,70,0,4.97,AU,1691247260
386,floro,61.5996,5.0328,290.19,63,87,6.17,NO,1691247261
387,kristiansund,63.1115,7.732,288.18,58,100,4.12,NO,1691247261
388,tamandare,-8.7597,-35.1047,299.99,68,58,3.15,BR,1691247261
389,indi,17.1667,75.9667,299.61,71,100,6.98,IN,1691247261
390,qarazhal,48.0078,70.7903,302.1,29,89,6.85,KZ,1691247262
391,tenenkou,14.4572,-4.9169,309.66,34,98,2.22,ML,1691247262
392,djambala,-2.5447,14.7533,306.78,22,2,2.57,CG,1691247262
393,bechar,31.6167,-2.2167,313.33,12,0,2.57,DZ,1691247263
394,ad dabbah,18.05,30.95,314.24,21,96,4.73,SD,1691247263
395,kayangel,8.0823,134.7173,300.66,80,100,4.29,PW,1691247263
396,kievka,50.2619,71.5514,299.21,41,91,5.11,KZ,1691247263
397,kulachi,31.9286,70.4592,314.29,28,3,5.24,PK,1691247264
398,maisi,43.0395,41.2621,301.12,62,0,0.76,GE,1691247264
399,kavaratti,10.5669,72.642,301.29,80,55,8.07,IN,1691247264
400,okhotsk,59.3833,143.3,287.61,64,69,2.29,RU,1691247265
401,itaporanga,-7.3044,-38.1503,306.42,26,21,1.38,BR,1691247266
402,de panne,51.0792,2.5917,289.27,63,100,5.66,BE,1691247266
403,zhosaly,45.4878,64.0781,304.46,30,90,6.61,KZ,1691247266
404,tabou,4.423,-7.3528,299.06,77,100,4.62,CI,1691247267
405,baalbek,34.0058,36.2181,299.4,27,0,4.91,LB,1691247267
406,korla,41.7597,86.1469,305.95,14,20,2.57,CN,1691247267
407,vorkuta,67.5,64.0,295.89,48,0,4.44,RU,1691247268
408,rancho palos verdes,33.7445,-118.387,296.14,92,0,1.34,US,1691247268
409,sari,36.5633,53.0601,301.92,58,75,2.06,IR,1691247268
410,colwyn bay,53.2948,-3.7267,288.09,85,100,4.59,GB,1691247268
411,sabha,27.0377,14.4283,315.35,8,0,1.43,LY,1691247269
412,kurchatov,51.6601,35.6521,303.38,48,3,2.39,RU,1691247269
413,villa bruzual,9.3328,-69.1208,301.16,81,52,1.16,VE,1691247269
414,stalowa wola,50.5829,22.0533,301.36,62,53,2.39,PL,1691247270
415,khandyga,62.6667,135.6,287.98,71,73,1.77,RU,1691247270
416,susuman,62.7833,148.1667,279.48,74,14,1.09,RU,1691247270
417,vilhena,-12.7406,-60.1458,304.27,30,0,3.09,BR,1691247002
418,tralee,52.2704,-9.7026,289.29,72,75,5.66,IE,1691247271
419,poxoreo,-15.8372,-54.3892,308.11,20,3,1.83,BR,1691247197
420,essaouira,31.5125,-9.77,299.87,61,20,3.6,MA,1691247271
421,auki,-8.7676,160.7034,297.25,95,100,5.47,SB,1691247000
422,kudahuvadhoo,2.6708,72.8944,301.68,75,97,4.51,MV,1691247272
423,santiago de cao,-7.9589,-79.2392,295.22,73,100,4.12,PE,1691247272
424,punta del este,-34.9667,-54.95,285.91,80,0,3.13,UY,1691247272
425,alto barinas,8.5931,-70.2261,301.9,69,29,1.44,VE,1691247273
426,okha,53.5739,142.9478,284.34,82,11,1.76,RU,1691247273
427,caribou,46.8606,-68.012,290.39,94,100,2.06,US,1691247273
428,tuy hoa,13.0833,109.3,301.19,71,28,4.59,VN,1691247274
429,hakui,36.8833,136.7833,302.42,91,3,2.3,JP,1691247274
430,namtsy,62.7161,129.6658,289.67,58,66,0.89,RU,1691247274
431,sakiet sidi youssef,36.2229,8.3555,295.91,47,0,8.49,TN,1691247274
432,horning,56.087,10.0372,294.32,59,100,0.89,DK,1691247275
433,puerto deseado,-47.7503,-65.8938,281.35,53,23,8.53,AR,1691247275
434,havre,49.5833,0.3333,292.7,77,100,12.35,FR,1691247275
435,port-au-prince,18.5392,-72.335,304.94,55,20,8.75,HT,1691247090
436,saint-philippe,-21.3585,55.7679,294.92,85,83,7.54,RE,1691247276
437,misratah,32.3754,15.0925,301.15,59,15,10.16,LY,1691247276
438,kijang,35.2442,129.2139,301.0,79,0,2.35,KR,1691247276
439,luderitz,-26.6481,15.1594,291.06,57,7,3.26,NA,1691247277
440,bongaree,-27.0797,153.1586,291.05,77,69,2.79,AU,1691247277
441,salinopolis,-0.6136,-47.3561,302.54,69,12,4.7,BR,1691247277
442,el calafate,-50.3408,-72.2768,273.79,82,20,1.47,AR,1691247277
443,freistadt,48.511,14.5045,288.66,98,100,2.8,AT,1691247278
444,javea,38.7833,0.1667,305.17,51,0,4.47,ES,1691247278
445,dul'durga,50.6761,113.5931,288.9,88,100,2.32,RU,1691247278
446,salahonda,2.1019,-78.7217,301.06,77,90,3.52,CO,1691247278
447,donnacona,46.6804,-71.7239,294.28,68,5,2.57,CA,1691247279
448,kaohsiung,22.6163,120.3133,302.2,91,75,5.14,TW,1691247279
449,raduzhny,62.0961,77.475,292.54,51,5,1.6,RU,1691247279
450,cadale,2.7603,46.3222,298.89,78,11,8.64,SO,1691247279
451,buala,-8.145,159.5921,298.07,93,100,3.52,SB,1691247280
452,oratorio,14.2281,-90.1758,298.3,68,89,1.76,GT,1691247280
453,severo-yeniseyskiy,60.3725,93.0408,281.33,93,100,1.26,RU,1691247280
454,ebaye,8.7748,167.7392,301.16,78,75,6.65,MH,1691247281
455,fisterra,42.9049,-9.2629,301.34,82,0,9.12,ES,1691247281
456,washington,47.5001,-120.5015,296.37,57,100,1.11,US,1691247132
457,usinsk,65.9939,57.5281,298.8,57,44,3.55,RU,1691247281
458,tocopilla,-22.092,-70.1979,293.62,59,3,3.6,CL,1691247282
459,la ronge,55.1001,-105.2842,290.29,77,20,4.12,CA,1691247282
460,cockburn town,21.4612,-71.1419,302.17,82,18,9.06,TC,1691247283
461,manakara,-22.1333,48.0167,293.35,69,100,2.12,MG,1691247283
462,igrim,63.1906,64.4162,299.27,51,43,0.75,RU,1691247283
463,mulanje,-16.0316,35.5,294.51,63,89,4.11,MW,1691247283
464,aksu,41.1231,80.2644,303.64,25,30,3.94,CN,1691247284
465,hono,57.6897,11.6497,293.99,65,23,5.6,SE,1691247284
466,albunol,36.792,-3.205,305.19,61,0,2.96,ES,1691247284
467,utrik,11.2278,169.8474,301.47,73,100,8.39,MH,1691247284
468,khovd,48.0056,91.6419,294.3,39,72,5.54,MN,1691247285
469,saint croix,17.7397,-64.7388,305.4,62,0,7.72,VI,1691247241
470,les avirons,-21.2418,55.3394,293.2,78,20,9.77,RE,1691247285
471,ain sefra,32.75,-0.5833,310.94,11,0,2.26,DZ,1691247286
472,tame,6.461,-71.73,301.25,70,58,1.81,CO,1691247286
473,san ignacio,17.1561,-89.0714,301.23,78,0,2.06,BZ,1691247286
474,kirillov,59.863,38.3813,297.69,55,27,2.21,RU,1691247287
475,altai,46.3722,96.2583,289.19,40,12,1.3,MN,1691247287
476,champerico,14.3,-91.9167,301.45,67,72,1.17,GT,1691247287
477,nyagan,62.1406,65.3936,298.15,62,48,2.18,RU,1691247287
478,pico truncado,-46.7949,-67.9573,279.02,60,3,8.12,AR,1691247288
479,yaya,56.206,86.44,288.55,57,0,3.68,RU,1691247288
480,bay roberts,47.5999,-53.2648,292.96,78,87,2.68,CA,1691247289
481,elliot lake,46.3834,-82.6331,294.46,44,50,0.89,CA,1691247289
482,arawa,-6.2132,155.5367,297.32,94,100,2.7,PG,1691247290
483,turmalina,-17.2856,-42.73,301.38,28,89,2.17,BR,1691247290
484,villa gesell,-37.2639,-56.973,285.96,60,75,4.07,AR,1691247290
485,realico,-35.0366,-64.2447,290.4,36,0,7.84,AR,1691247291
486,maloye ganyushkino,46.6,49.2667,306.03,35,7,6.32,KZ,1691247291
487,albertina,-22.2008,-46.6158,301.12,21,0,1.14,BR,1691247291
488,kangding,30.0513,101.9603,289.95,98,99,1.29,CN,1691247010
489,baiti,13.745,-14.7482,309.13,46,85,4.04,SN,1691247292
490,rongelap,11.1635,166.8941,301.48,77,100,6.46,MH,1691247292
491,la passe,45.5549,-0.8967,292.58,88,100,9.54,FR,1691247292
492,cartagena del chaira,1.3349,-74.8429,299.2,89,49,1.1,CO,1691247293
493,buritis,-15.6178,-46.4233,303.48,24,100,2.25,BR,1691247195
494,ust'-ilimsk,58.0006,102.6619,282.39,83,37,0.32,RU,1691247293
495,ishqoshim,36.7248,71.6133,294.03,32,5,4.14,TJ,1691247294
496,svetlyy,54.675,20.1347,293.13,88,100,2.9,RU,1691247294
497,ugoofaaru,5.6667,73.0,301.17,79,41,4.99,MV,1691247294
498,cartagena,10.3997,-75.5144,303.94,74,0,0.51,CO,1691247217
499,eureka,40.8021,-124.1637,289.49,92,0,0.45,US,1691247295
500,puerto aysen,-45.4,-72.7,278.71,97,99,1.87,CL,1691247295
501,chernyshevsk,52.5243,117.0174,290.26,41,98,1.83,RU,1691247295
502,cill airne,52.05,-9.5167,289.18,72,75,5.66,IE,1691247295
503,taradale,-39.5333,176.85,275.38,89,14,2.36,NZ,1691247296
504,rovnoye,50.7765,46.0509,302.44,47,0,3.71,RU,1691247296
505,sakaraha,-22.9,44.5333,297.66,33,85,1.58,MG,1691247296
506,chota,-6.55,-78.65,290.31,59,46,3.61,PE,1691247297
507,orcopampa,-15.2661,-72.3417,281.57,52,9,1.17,PE,1691247297
508,bredy,52.4153,60.3411,296.88,63,62,3.39,RU,1691247297
509,bamor kalan,24.9,78.15,297.94,92,100,5.5,IN,1691247297
510,sodra sandby,56.5667,16.6167,293.09,64,87,6.62,SE,1691247298
511,philipsburg,18.026,-63.0458,304.37,74,40,7.72,SX,1691247298
512,golere,16.2557,-14.1017,310.72,35,44,4.68,SN,1691247298
513,mizdah,31.4451,12.9801,307.61,31,0,7.23,LY,1691247298
514,rengo,-34.4167,-70.8667,281.33,63,100,1.67,CL,1691247299
515,ouesso,1.6136,16.0517,301.74,60,99,1.15,CG,1691247299
516,berdigestyakh,62.0989,126.6992,288.54,58,26,0.77,RU,1691247299
517,luchegorsk,46.4764,134.2569,287.98,98,100,2.28,RU,1691247299
518,oodweyne,9.4092,45.064,303.78,31,95,9.24,SO,1691247300
519,wilhelmsburg,48.1057,15.6054,291.13,99,100,3.63,AT,1691247300
520,guaimaca,14.5333,-86.8167,298.68,57,51,2.24,HN,1691247128
521,manoharpur,27.3,75.95,303.33,63,100,3.51,IN,1691247300
522,yashkul',46.1711,45.3435,310.93,19,0,3.19,RU,1691247301
523,cromer,52.9312,1.2989,287.99,91,100,4.32,GB,1691247301
524,anina,45.0794,21.8569,294.29,34,0,6.64,RO,1691247302
525,harstad,68.799,16.5293,287.68,80,57,7.15,NO,1691247302
526,akobo,7.4344,3.9497,299.9,78,40,2.06,NG,1691247302
527,zmeinogorsk,51.1567,82.195,289.69,90,78,1.03,RU,1691247303
528,recani,31.2846,-4.2688,315.11,8,0,3.94,MA,1691247303
529,leh,34.1667,77.5833,295.67,34,71,2.09,IN,1691247304
530,progreso,21.2833,-89.6667,302.65,68,10,2.0,MX,1691247304
531,qarqaraly,49.4058,75.4742,293.56,60,25,3.36,KZ,1691247305
532,al mijlad,11.0333,27.7333,303.94,51,94,4.38,SD,1691247305
533,sung noen,14.8992,101.8207,300.44,70,100,4.42,TH,1691247305
534,morehead city,34.7229,-76.726,300.15,89,75,3.6,US,1691247280
535,karratha,-20.7377,116.8463,296.86,50,4,2.77,AU,1691247306
536,guerrero negro,27.9769,-114.0611,293.9,76,46,4.0,MX,1691247268
537,hoeyang,38.7103,127.5983,296.25,96,68,0.85,KP,1691247306
538,nampula,-15.1165,39.2666,294.0,76,93,1.94,MZ,1691247296
539,turinskaya sloboda,57.6232,64.3858,294.68,81,77,1.71,RU,1691247307
540,bull savanna,17.8868,-77.5902,303.42,62,0,4.78,JM,1691247307
541,zaozersk,69.4005,32.4476,284.98,88,100,5.89,RU,1691247308
542,mizan teferi,6.9833,35.5833,291.7,94,100,0.52,ET,1691247308
543,jinka,5.65,36.65,296.92,47,93,0.25,ET,1691247308
544,barro alto,-11.7608,-41.9117,301.62,20,1,3.82,BR,1691247309
545,happy valley-goose bay,53.3168,-60.3315,293.32,60,75,4.63,CA,1691247309
546,oranjemund,-28.55,16.4333,288.97,62,70,2.68,NA,1691247309
547,kidal,18.4411,1.4078,312.47,26,38,9.68,ML,1691247309
548,takoradi,4.8845,-1.7554,298.86,82,72,4.83,GH,1691247310
549,torslanda,57.7243,11.7701,292.6,76,27,3.13,SE,1691247310
550,vila velha,-20.3297,-40.2925,300.34,60,0,3.09,BR,1691247065
551,taoudenni,22.6783,-3.9836,322.23,5,1,3.05,ML,1691247311
552,laguna,38.421,-121.4238,297.56,74,0,2.06,US,1691247311
553,joao pinheiro,-17.7425,-46.1725,301.71,21,0,2.92,BR,1691247311
554,ventspils,57.3894,21.5606,293.11,77,40,2.57,LV,1691247312
555,padang,-0.9492,100.3543,297.18,88,9,1.25,ID,1691247312
556,maputo,-25.9653,32.5892,295.97,64,40,4.63,MZ,1691247312
557,antofagasta,-23.65,-70.4,290.75,63,5,3.45,CL,1691247257
558,amga,60.8953,131.9608,288.81,60,100,0.34,RU,1691247313
559,abu al matamir,30.9102,30.1744,310.42,20,0,5.11,EG,1691247313
560,kyaikto,17.3,97.0167,299.11,88,100,3.35,MM,1691247313
561,jefferson,38.1834,-85.65,301.97,71,0,4.02,US,1691247088
