City_ID,City,Lat,Lng,Max Temp,Humidity,Cloudiness,Wind Speed,Country,Date
0,longquan,24.6719,102.1613,25.86,77,100,0.62,CN,1691302092
1,saint-philippe,-21.3585,55.7679,22.77,77,75,7.25,RE,1691302093
2,margaret river,-33.95,115.0667,15.23,62,74,2.19,AU,1691302093
3,bethel,41.3712,-73.414,21.17,82,0,1.54,US,1691301978
4,waitangi,-43.9535,-176.5597,8.23,61,85,8.67,NZ,1691302094
5,ribeira grande,38.5167,-28.7,21.54,80,98,2.24,PT,1691302094
6,port-aux-francais,-49.35,70.2167,3.21,77,86,11.79,TF,1691302095
7,touros,-5.1989,-35.4608,25.08,76,10,6.83,BR,1691302078
8,al jawf,29.5,38.75,29.41,26,0,5.18,SA,1691302096
9,tazovsky,67.4667,78.7,20.31,51,0,2.46,RU,1691302096
10,rosarito,32.3333,-117.0333,18.53,75,8,1.93,MX,1691301876
11,invercargill,-46.4,168.35,9.45,86,70,4.02,NZ,1691302097
12,edinburgh of the seven seas,-37.0676,-12.3116,12.01,79,75,21.34,SH,1691301907
13,blackmans bay,-43.0167,147.3167,13.07,68,96,0.85,AU,1691301804
14,woodland park,40.8898,-74.1949,24.22,82,0,2.06,US,1691302098
15,punta arenas,-53.15,-70.9167,-1.65,70,45,12.49,CL,1691302098
16,mitsamiouli,-11.3847,43.2844,25.42,71,14,5.07,KM,1691302099
17,happy valley-goose bay,53.3168,-60.3315,14.61,90,100,0.74,CA,1691302099
18,waingapu,-9.6567,120.2641,28.89,51,1,7.39,ID,1691302100
19,lihue,21.9789,-159.3672,26.77,75,40,6.17,US,1691302100
20,coquimbo,-29.9533,-71.3436,13.85,100,100,1.03,CL,1691301996
21,vadso,70.0744,29.7487,13.49,71,100,1.54,NO,1691302101
22,petropavlovsk-kamchatsky,53.0452,158.6483,20.33,64,75,3.0,RU,1691302101
23,ushuaia,-54.8,-68.3,-3.17,87,65,12.87,AR,1691302068
24,ilhabela,-23.7781,-45.3581,18.98,87,49,2.54,BR,1691301875
25,stanley,54.868,-1.6985,9.74,92,20,2.57,GB,1691302054
26,papao,-17.75,-149.55,25.82,75,42,0.63,PF,1691301970
27,george town,5.4112,100.3354,31.96,62,20,5.14,MY,1691302091
28,revda,56.801,59.9303,21.57,82,97,2.71,RU,1691302104
29,lompoc,34.6391,-120.4579,22.66,96,100,0.0,US,1691301961
30,nabire,-3.3667,135.4833,30.99,55,31,2.2,ID,1691302105
31,port lincoln,-34.7333,135.8667,12.5,64,79,3.6,AU,1691301850
32,puerto baquerizo moreno,-0.9,-89.6,24.02,76,74,6.4,EC,1691302106
33,albany,42.6001,-73.9662,16.34,84,88,1.88,US,1691302107
34,myshkin,57.7897,38.4545,24.73,61,6,2.45,RU,1691302107
35,nuku'alofa,-21.1333,-175.2,20.19,94,100,3.6,TO,1691302108
36,papatowai,-46.5619,169.4708,8.58,86,99,3.06,NZ,1691302108
37,richards bay,-28.783,32.0377,17.53,80,0,4.17,ZA,1691302109
38,bredasdorp,-34.5322,20.0403,9.2,94,39,3.19,ZA,1691302109
39,labytnangi,66.6572,66.4183,26.13,47,0,2.79,RU,1691302109
40,yellowknife,62.456,-114.3525,14.29,82,75,1.03,CA,1691301947
41,guiuan,11.0333,125.7247,29.8,72,8,5.71,PH,1691302110
42,corner brook,48.9667,-57.9484,14.09,86,100,3.26,CA,1691301987
43,mzimba,-11.9,33.6,15.92,81,34,6.09,MW,1691302111
44,grytviken,-54.2811,-36.5092,-7.29,82,94,4.56,GS,1691302112
45,tiksi,71.6872,128.8694,3.97,67,78,2.73,RU,1691302112
46,schkeuditz,51.4,12.2167,16.82,88,0,4.12,DE,1691302112
47,hammerfest,70.6634,23.6821,13.25,71,100,0.0,NO,1691302113
48,tindouf,27.6711,-8.1474,23.84,57,0,4.59,DZ,1691302113
49,pemba,-12.974,40.5178,23.11,80,14,5.98,MZ,1691302114
50,vila velha,-20.3297,-40.2925,18.86,93,40,0.0,BR,1691302114
51,craig,40.5153,-107.5464,17.79,71,0,0.0,US,1691302004
52,wailua homesteads,22.0669,-159.378,26.44,81,40,6.17,US,1691302115
53,illizi,26.4833,8.4667,33.21,10,0,0.93,DZ,1691302115
54,czempin,52.144,16.7641,15.17,96,100,6.35,PL,1691302116
55,smithers,54.7804,-127.1743,21.18,56,20,0.0,CA,1691301854
56,bilibino,68.0546,166.4372,4.79,86,100,3.02,RU,1691301917
57,cavelossim,15.1726,73.9419,28.42,74,93,5.37,IN,1691302117
58,zaozersk,69.4005,32.4476,11.26,86,100,1.43,RU,1691302117
59,nar'yan-mar,67.6713,53.087,22.31,61,86,4.49,RU,1691302118
60,yelizovo,53.1873,158.3805,21.08,68,75,3.0,RU,1691302003
61,puerto natales,-51.7236,-72.4875,-0.72,75,100,8.29,CL,1691301912
62,kodiak,57.79,-152.4072,10.73,100,100,1.54,US,1691302119
63,ballina,-28.8667,153.5667,19.88,65,18,3.32,AU,1691302119
64,vorgashor,67.5833,63.95,27.37,44,3,4.95,RU,1691302120
65,terbuny,52.1389,38.2789,26.66,56,3,4.98,RU,1691302120
66,port mathurin,-19.6833,63.4167,22.35,63,11,12.2,MU,1691302121
67,galle,6.0367,80.217,28.41,77,53,6.52,LK,1691302121
68,akureyri,65.6835,-18.0878,11.84,75,98,0.76,IS,1691302121
69,kulhudhuffushi,6.6221,73.07,28.22,77,32,7.13,MV,1691301923
70,tambacounda,13.7539,-13.7586,25.49,94,100,4.16,SN,1691302122
71,bandar abbas,27.1865,56.2808,34.99,71,75,3.09,IR,1691302123
72,dishna,26.1247,32.476,34.91,14,1,1.56,EG,1691302123
73,adamstown,-25.066,-130.1015,21.48,85,73,10.36,PN,1691301917
74,saudarkrokur,65.7461,-19.6394,9.82,74,98,0.87,IS,1691302124
75,huarmey,-10.0681,-78.1522,19.08,81,73,3.36,PE,1691302124
76,kapa'a,22.0752,-159.319,27.18,81,40,6.17,US,1691302125
77,chu,43.5983,73.7614,33.54,18,100,3.93,KZ,1691302125
78,nchelenge,-9.3451,28.734,17.82,50,1,3.56,ZM,1691302126
79,hawaiian paradise park,19.5933,-154.9731,22.8,95,100,2.06,US,1691302127
80,uddevalla,58.3478,11.9424,15.55,88,100,2.28,SE,1691302127
81,kenitra,34.261,-6.5802,20.42,75,0,2.2,MA,1691302128
82,richland,40.7834,-82.5499,20.94,87,75,3.6,US,1691302128
83,luderitz,-26.6481,15.1594,14.17,69,7,3.86,NA,1691302129
84,thompson,55.7435,-97.8558,16.09,94,75,3.09,CA,1691301918
85,brookings,44.3114,-96.7984,19.0,91,100,5.66,US,1691301869
86,port elizabeth,-33.918,25.5701,16.16,88,75,7.72,ZA,1691302130
87,lancaster,40.2504,-76.2499,21.17,87,97,0.89,US,1691301973
88,egilsstadir,65.2653,-14.3948,9.81,74,21,1.82,IS,1691302131
89,saipan,15.1355,145.701,31.39,100,20,4.12,MP,1691302131
90,colonia,50.9333,6.95,16.09,90,100,2.06,DE,1691301941
91,nyurba,63.2842,118.3319,26.08,37,84,4.27,RU,1691302132
92,flying fish cove,-10.4217,105.6791,25.82,83,100,6.69,CX,1691302133
93,rajanpur,29.1035,70.325,38.23,39,28,7.98,PK,1691302133
94,labasa,-16.4167,179.3833,24.43,92,75,1.42,FJ,1691302134
95,jamestown,42.097,-79.2353,17.8,92,0,2.06,US,1691302074
96,iqaluit,63.7506,-68.5145,6.5,87,69,0.89,CA,1691302135
97,nema,57.5067,50.5011,24.23,56,70,3.76,RU,1691302135
98,macae,-22.3708,-41.7869,18.63,95,3,2.95,BR,1691302135
99,college,64.8569,-147.8028,23.78,55,40,1.54,US,1691302011
100,minas de marcona,-15.2119,-75.1103,11.88,83,26,2.64,PE,1691302136
101,kudat,6.8837,116.8477,30.95,61,4,4.48,MY,1691302137
102,sake,-1.5736,29.045,21.55,53,50,3.47,CD,1691302137
103,bu'aale,1.0833,42.5833,26.4,68,76,5.72,SO,1691302137
104,gyumri,40.7942,43.8453,22.79,49,11,1.54,AM,1691302138
105,mount isa,-20.7333,139.5,25.87,24,0,5.66,AU,1691302138
106,itaituba,-4.2761,-55.9836,23.28,63,30,0.89,BR,1691302039
107,west island,-12.1568,96.8225,26.99,78,75,5.66,CC,1691302139
108,westerland,54.9079,8.3033,15.01,94,100,2.06,DE,1691302139
109,hithadhoo,-0.6,73.0833,28.7,69,100,3.01,MV,1691302140
110,hermanus,-34.4187,19.2345,8.78,86,18,3.94,ZA,1691302140
111,tingi,-11.3,35.0333,15.96,82,58,3.09,TZ,1691302140
112,dudinka,69.4058,86.1778,24.79,38,29,2.52,RU,1691302141
113,atafu village,-8.5421,-172.5159,28.85,74,11,2.95,TK,1691302141
114,new norfolk,-42.7826,147.0587,13.73,75,96,1.03,AU,1691302143
115,vilhena,-12.7406,-60.1458,20.41,52,1,1.44,BR,1691302143
116,basco,20.4487,121.9702,28.26,84,27,14.47,PH,1691302144
117,porto novo,6.4965,2.6036,23.5,94,100,2.69,BJ,1691302144
118,puerto leguizamo,-0.1934,-74.7819,21.72,97,94,0.4,CO,1691302145
119,st. john's,47.5649,-52.7093,15.44,89,75,3.6,CA,1691301953
120,queenstown,-31.8976,26.8753,11.06,29,32,2.52,ZA,1691302145
121,cabo san lucas,22.8909,-109.9124,26.7,75,93,7.53,MX,1691301947
122,nikolayevsk-on-amure,53.1406,140.73,22.31,37,99,3.19,RU,1691302156
123,kapuskasing,49.4169,-82.4331,12.87,71,3,2.33,CA,1691302167
124,yaren,-0.5472,166.916,28.9,72,70,2.34,NR,1691302167
125,vilyuchinsk,52.9306,158.4028,21.15,68,49,0.92,RU,1691302168
126,fort madison,40.6298,-91.3151,21.12,100,24,0.0,US,1691302168
127,ilulissat,69.2167,-51.1,4.01,87,9,0.0,GL,1691302175
128,nemuro,43.3236,145.575,14.88,96,100,5.12,JP,1691301948
129,farsala,39.2947,22.3847,28.52,46,0,4.71,GR,1691302180
130,laghouat,33.8,2.8651,23.9,20,0,0.63,DZ,1691302016
131,as sulayyil,20.4607,45.5779,38.95,8,18,1.4,SA,1691302182
132,longyearbyen,78.2186,15.6401,9.91,93,75,7.72,SJ,1691302182
133,fort mcmurray,56.7268,-111.381,15.6,68,68,0.62,CA,1691302094
134,selfoss,63.9331,-20.9971,10.58,94,100,0.88,IS,1691301977
135,santa cruz,-17.8,-63.1667,21.7,88,0,3.6,BO,1691301998
136,khandyga,62.6667,135.6,25.35,31,43,5.19,RU,1691302184
137,hinton,53.4001,-117.5857,12.95,88,4,0.77,CA,1691302184
138,labrador city,52.9463,-66.9114,12.95,100,100,2.57,CA,1691301941
139,carinhanha,-14.3047,-43.765,19.01,40,89,1.22,BR,1691302185
140,fort st. john,56.2499,-120.8529,14.69,71,100,1.15,CA,1691302186
141,carnarvon,-24.8667,113.6333,25.13,52,21,3.35,AU,1691302093
142,raigarh,21.9,83.4,28.82,80,100,7.24,IN,1691302187
143,iskenderun,36.5872,36.1735,32.46,74,33,3.58,TR,1691302188
144,ust-nera,64.5667,143.2,12.54,73,99,4.91,RU,1691302188
145,iquitos,-3.7481,-73.2472,23.02,94,20,0.51,PE,1691301897
146,copiapo,-27.3667,-70.3333,12.83,84,8,1.04,CL,1691302175
147,bardai,11.65,7.2333,21.51,94,100,4.03,NG,1691302190
148,sandnessjoen,66.0217,12.6316,9.29,68,17,1.54,NO,1691302190
149,whitehorse,60.7161,-135.0538,17.79,65,96,2.46,CA,1691302031
150,bagamoyo,-6.4333,38.9,23.03,84,53,3.15,TZ,1691302191
151,camarinas,43.1311,-9.1817,16.63,78,5,9.28,ES,1691302191
152,tamanrasset,22.785,5.5228,27.95,26,45,3.6,DZ,1691302192
153,hamilton,39.1834,-84.5333,25.56,81,75,4.12,US,1691301898
154,dampit,-8.2116,112.7493,28.53,58,42,2.96,ID,1691302193
155,orkney,-26.9802,26.6727,8.2,40,0,1.4,ZA,1691302193
156,rawai,7.7797,98.3253,31.06,75,93,4.96,TH,1691302195
157,kirando,-7.4167,30.6,23.99,45,0,1.68,TZ,1691302195
158,berezovyy,51.6667,135.7,26.09,27,2,3.2,RU,1691302196
159,avarua,-21.2078,-159.775,20.03,100,100,1.54,CK,1691302196
160,dunedin,-45.8742,170.5036,9.33,72,100,0.45,NZ,1691302197
161,vernon,50.2581,-119.2691,24.61,39,92,1.34,CA,1691302197
162,karatau,43.1667,70.4667,30.18,27,100,3.83,KZ,1691302198
163,mikuni,36.2171,136.1519,30.44,71,22,3.74,JP,1691302198
164,gafsa,34.425,8.7842,23.58,60,0,1.08,TN,1691302198
165,nuuk,64.1835,-51.7216,6.6,93,3,4.12,GL,1691302199
166,badulla,6.9895,81.0557,32.44,43,81,1.75,LK,1691302199
167,lebu,-37.6167,-73.65,10.82,84,95,2.68,CL,1691302200
168,saldanha,-33.0117,17.9442,7.03,80,82,1.81,ZA,1691301928
169,karratha,-20.7377,116.8463,27.68,33,94,7.74,AU,1691302201
170,magadan,59.5667,150.8,23.63,54,7,0.8,RU,1691302201
171,olonkinbyen,70.9221,-8.7187,3.27,97,100,9.83,SJ,1691302202
172,fort bragg,35.139,-79.006,24.85,88,0,2.06,US,1691302203
173,siwa oasis,29.2041,25.5195,33.73,24,0,0.33,EG,1691302203
174,zhangye,38.9342,100.4517,33.32,18,6,2.56,CN,1691302203
175,guichon,-32.35,-57.2,19.02,82,91,4.83,UY,1691302168
176,morococha,-11.5997,-76.1411,1.32,78,87,2.08,PE,1691302204
177,udachny,66.4167,112.4,20.25,45,4,6.23,RU,1691302118
178,ma'an,26.9775,110.7211,34.71,53,21,2.43,CN,1691302205
179,sao tome,0.3365,6.7273,23.38,81,69,4.66,ST,1691302205
180,east london,-33.0153,27.9116,19.83,31,41,2.8,ZA,1691302206
181,nagqu,31.5,92.0,15.46,46,49,4.51,CN,1691302206
182,keflavik,64.0049,-22.5624,10.95,100,75,3.6,IS,1691301924
183,codrington,-38.2667,141.9667,13.12,69,100,2.69,AU,1691301975
184,fale old settlement,-9.3852,-171.2468,28.89,75,13,4.81,TK,1691301955
185,upington,-28.4478,21.2561,13.06,34,3,3.36,ZA,1691302208
186,aleksandrovsk-sakhalinskiy,50.8975,142.1561,18.7,69,54,2.71,RU,1691302208
187,baragaon,25.4333,82.8167,32.99,70,75,2.06,IN,1691302209
188,boca suno,-0.7167,-77.1333,20.22,98,76,0.83,EC,1691302209
189,zouerate,22.7187,-12.4521,22.68,50,4,3.46,MR,1691302210
190,mukalla,14.5425,49.1242,30.97,64,33,1.98,YE,1691302210
191,rehoboth,-23.3167,17.0833,12.87,34,2,2.23,NA,1691302211
192,sukheke mandi,31.8639,73.5112,38.46,35,6,2.64,PK,1691302211
193,aykhal,66.0,111.5,19.34,37,12,8.59,RU,1691302211
194,puerto ayora,-0.7393,-90.3518,24.19,91,73,2.68,EC,1691301935
195,rijau,11.103,5.2507,22.35,97,100,1.34,NG,1691302212
196,kavaratti,10.5669,72.642,28.12,78,80,8.88,IN,1691302213
197,kingston,17.997,-76.7936,26.8,90,1,0.79,JM,1691302213
198,mermoz boabab,14.7065,-17.4758,26.31,83,98,3.95,SN,1691302213
199,tolanaro,-25.0319,46.9987,21.42,63,43,7.62,MG,1691302214
200,santos dumont,-21.4567,-43.5525,12.9,86,0,0.29,BR,1691302214
201,san jose del guaviare,2.5729,-72.6459,21.59,98,100,0.97,CO,1691302215
202,lucapa,-8.4192,20.7447,17.77,38,3,2.3,AO,1691302215
203,al burayqah,30.4062,19.5739,27.51,68,28,7.77,LY,1691302215
204,alice springs,-23.7,133.8833,21.75,37,0,5.14,AU,1691302216
205,lichinga,-13.3128,35.2406,10.05,100,75,6.17,MZ,1691302216
206,vizinga,61.0749,50.1031,22.68,60,31,3.04,RU,1691302217
207,naze,28.3667,129.4833,25.51,94,97,10.79,JP,1691302217
208,remire-montjoly,4.9167,-52.2667,25.02,94,0,0.0,GF,1691302218
209,inhambane,-23.865,35.3833,20.37,68,0,2.69,MZ,1691302218
210,anadyr,64.75,177.4833,12.28,81,40,10.73,RU,1691302219
211,marataizes,-21.0433,-40.8244,19.72,86,0,3.73,BR,1691302219
212,mukwonago,42.8667,-88.3334,21.82,94,75,1.54,US,1691302220
213,lorengau,-2.0226,147.2712,27.53,76,96,6.04,PG,1691302221
214,ain sukhna,29.6002,32.3167,32.58,28,0,0.78,EG,1691302221
215,saint-pierre,-21.3393,55.4781,23.65,68,0,10.8,RE,1691302221
216,ulsteinvik,62.3432,5.8487,14.06,81,100,1.79,NO,1691302222
217,georgetown,5.4112,100.3354,31.96,62,20,5.14,MY,1691302090
218,pyapon,16.2833,95.6833,30.42,66,91,6.23,MM,1691302223
219,praia da vitoria,38.7333,-27.0667,21.53,86,100,0.82,PT,1691302223
220,bodo,67.28,14.405,13.03,90,75,4.63,NO,1691302224
221,sisimiut,66.9395,-53.6735,6.1,83,9,1.46,GL,1691302224
222,afaahiti,-17.75,-149.2833,24.93,76,40,1.61,PF,1691302224
223,catio,11.2833,-15.25,25.73,92,100,2.49,GW,1691302225
224,clovis,36.8252,-119.7029,28.94,51,20,3.09,US,1691302135
225,nova sintra,14.8667,-24.7167,22.89,79,49,3.09,CV,1691302226
226,carutapera,-1.195,-46.02,24.23,93,61,2.56,BR,1691301933
227,amahai,-3.3333,128.9167,26.98,72,68,5.97,ID,1691302226
228,kingscliff,-28.2667,153.5667,19.41,68,100,4.63,AU,1691302227
229,shorapur,16.5167,76.75,29.86,53,46,8.2,IN,1691302096
230,mount pearl,47.5166,-52.7813,14.98,89,75,3.6,CA,1691302009
231,mogocha,53.7333,119.7667,26.17,30,100,1.39,RU,1691302228
232,diamantino,-14.4086,-56.4461,22.14,47,0,2.1,BR,1691301965
233,shiqian,27.5225,108.2281,31.57,73,28,2.32,CN,1691302229
234,lamu,-2.2717,40.902,26.12,80,52,7.51,KE,1691302229
235,dalhart,36.0595,-102.5133,23.01,64,0,5.66,US,1691301979
236,kununurra,-15.7667,128.7333,31.99,23,3,6.69,AU,1691302230
237,gadzhiyevo,69.2551,33.3362,10.86,92,100,3.53,RU,1691302231
238,san-pedro,4.7485,-6.6363,23.77,92,100,3.17,CI,1691302232
239,badger,64.8,-147.5333,23.73,58,75,1.54,US,1691302232
240,yamada,39.4667,141.95,29.71,71,49,7.0,JP,1691302233
241,arraial do cabo,-22.9661,-42.0278,20.52,92,1,5.99,BR,1691302134
242,priargunsk,50.3691,119.1012,24.39,39,100,4.19,RU,1691302234
243,kudahuvadhoo,2.6708,72.8944,27.96,74,100,4.99,MV,1691302234
244,san patricio,28.017,-97.5169,29.35,83,78,4.09,US,1691302234
245,verkhnevilyuysk,63.4453,120.3167,26.27,34,78,3.53,RU,1691302235
246,mana,5.6592,-53.7767,25.14,90,42,3.88,GF,1691301997
247,lycksele,64.5954,18.6735,14.13,72,19,0.0,SE,1691302235
248,lugoff,34.2274,-80.6892,24.1,93,0,0.0,US,1691302236
249,kiruna,67.8557,20.2251,9.51,81,75,0.0,SE,1691302236
250,tucuma,-0.1833,-50.05,24.54,92,4,2.78,BR,1691302237
251,gua musang,4.8823,101.9644,34.48,48,24,1.25,MY,1691302237
252,ust'-kalmanka,52.1207,83.305,26.27,51,92,2.1,RU,1691302238
253,qaqortoq,60.7167,-46.0333,5.37,94,14,0.79,GL,1691302238
254,cozumel,20.5083,-86.9458,28.04,89,0,0.0,MX,1691302220
255,rosetta,31.4044,30.4164,29.52,45,0,2.32,EG,1691302239
256,conception bay south,47.4999,-52.9981,15.31,89,100,3.76,CA,1691302240
257,pointe-noire,-4.7761,11.8635,21.58,91,59,1.3,CG,1691302240
258,tejen,37.3834,60.5054,36.45,19,0,6.28,TM,1691302241
259,bayanhongor,46.7167,100.1167,20.93,30,2,5.35,MN,1691302241
260,taman',45.2117,36.7161,28.5,52,0,8.1,RU,1691302242
261,ancud,-41.8697,-73.8203,5.31,87,100,1.44,CL,1691302242
262,baley,51.6,116.6333,24.56,30,100,3.62,RU,1691302243
263,nova vicosa,-17.8919,-39.3719,20.9,76,5,3.54,BR,1691302243
264,malango,-2.9627,119.9001,25.58,73,64,1.74,ID,1691302243
265,martapura,-3.4167,114.85,33.05,62,40,5.14,ID,1691302244
266,iwanai,42.9744,140.5089,21.23,95,100,1.35,JP,1691302244
267,coronel suarez,-37.4547,-61.9334,7.4,63,100,2.19,AR,1691302245
268,utrik,11.2278,169.8474,28.46,77,55,6.54,MH,1691302245
269,guiyang,26.5833,106.7167,28.52,68,46,2.6,CN,1691302245
270,port alfred,-33.5906,26.891,18.43,53,70,0.89,ZA,1691302155
271,munster,51.9624,7.6257,16.03,96,40,1.54,DE,1691302089
272,port hueneme,34.1478,-119.1951,24.04,84,0,0.0,US,1691302247
273,muisne,0.6,-80.0333,25.3,87,100,4.69,EC,1691302247
274,bengkulu,-3.8004,102.2655,28.93,71,3,3.71,ID,1691302248
275,lapithos,35.3375,33.1792,29.16,52,0,3.47,CY,1691302248
276,kimbe,-5.5502,150.1429,28.56,60,42,5.76,PG,1691302219
277,geraldton,-28.7667,114.6,24.23,60,75,1.03,AU,1691301949
278,wusong,30.95,117.7833,35.44,58,97,2.55,CN,1691302249
279,el calafate,-50.3408,-72.2768,3.02,91,60,5.51,AR,1691302250
280,ribeira brava,32.65,-17.0667,21.35,79,11,1.73,PT,1691302250
281,enewetak,11.3474,162.3373,28.78,77,75,4.95,MH,1691302251
282,manismata,-2.4667,111.0333,31.3,61,38,2.21,ID,1691302039
283,kadirli,37.3739,36.0961,28.04,79,89,1.85,TR,1691302252
284,klyuchi,52.2667,79.1667,19.3,88,100,1.51,RU,1691302252
285,narvik,68.4384,17.4272,14.1,87,47,0.91,NO,1691302252
286,petite riviere,-20.1894,57.4453,22.62,74,8,8.76,MU,1691302253
287,vylkove,45.4021,29.586,27.56,65,0,4.97,UA,1691302253
288,hadibu,12.65,54.0333,26.75,75,47,13.34,YE,1691302253
289,mejit,10.2753,170.8646,28.37,78,58,5.89,MH,1691302254
290,aasiaat,68.7098,-52.8699,0.06,84,10,2.83,GL,1691302254
291,kyaka,-1.2522,31.4203,23.56,49,23,4.3,TZ,1691302255
292,broome,42.2506,-75.833,15.75,93,81,0.45,US,1691302255
293,pangody,65.85,74.4859,26.49,37,6,3.28,RU,1691302255
294,sterling heights,42.5803,-83.0302,22.05,83,0,3.09,US,1691302216
295,mudgee,-32.5943,149.5871,15.99,65,97,2.43,AU,1691302011
296,tromso,69.6496,18.957,13.54,67,75,3.09,NO,1691302256
297,mitu,1.1983,-70.1733,21.61,99,76,0.97,CO,1691302257
298,pocone,-16.2567,-56.6228,23.34,38,1,1.63,BR,1691302257
299,sampit,-2.5333,112.95,27.92,86,52,2.28,ID,1691302258
300,sao gabriel da cachoeira,-0.1303,-67.0892,23.15,94,90,0.49,BR,1691302258
301,nehe,48.4833,124.8333,25.59,46,33,3.65,CN,1691302258
302,manokwari,-0.8667,134.0833,28.8,69,71,3.12,ID,1691302259
303,sharypovo,55.5403,89.2008,19.39,41,37,3.27,RU,1691302259
304,korla,41.7597,86.1469,35.62,16,83,5.03,CN,1691302260
305,fortuna,40.5982,-124.1573,16.63,96,100,3.09,US,1691302260
306,shilovo,54.3204,40.874,25.82,57,0,2.87,RU,1691302260
307,mantua,45.1667,10.7833,20.34,88,28,1.79,IT,1691302261
308,mahanje,-9.9333,35.3333,16.83,84,88,1.36,TZ,1691302261
309,luau,-10.7073,22.2247,16.63,43,0,2.24,AO,1691302262
310,durazno,-33.4131,-56.5006,15.14,96,93,4.24,UY,1691302262
311,isafjordur,66.0755,-23.124,10.61,76,99,2.08,IS,1691302263
312,miramichi,47.0043,-65.4654,12.9,97,54,1.83,CA,1691302263
313,uturoa,-16.7333,-151.4333,25.91,70,2,4.18,PF,1691302264
314,kamenka,51.3223,42.7678,27.35,53,0,4.73,RU,1691302265
315,prabumulih,-3.45,104.25,34.78,38,15,1.76,ID,1691302269
316,recreo,-29.2818,-65.061,16.72,62,0,3.03,AR,1691302270
317,island harbour,50.724,-1.2758,12.74,89,10,1.34,GB,1691302270
318,vila franca do campo,37.7167,-25.4333,21.23,82,52,2.36,PT,1691302271
319,turaif,31.6725,38.6637,27.94,28,0,2.3,SA,1691302271
320,yichang,30.7144,111.2847,33.13,72,63,2.21,CN,1691302272
321,tazacorte,28.629,-17.9293,21.54,82,20,3.13,ES,1691302272
322,nguigmi,14.2495,13.1092,27.04,72,99,5.41,NE,1691302272
323,port antonio,18.18,-76.4612,27.22,83,1,3.84,JM,1691302273
324,salym,60.0625,71.4789,24.31,40,3,3.05,RU,1691302273
325,talnakh,69.4865,88.3972,24.56,35,46,0.89,RU,1691302274
326,sinabang,2.4803,96.3801,29.92,68,86,1.98,ID,1691302274
327,bayevo,53.2833,80.7667,24.37,52,80,3.31,RU,1691302275
328,ouargaye,11.5033,0.0572,23.7,88,94,2.87,BF,1691302275
329,khovd,48.0056,91.6419,26.83,21,10,1.16,MN,1691302276
330,kindu,-2.95,25.95,24.89,71,67,0.78,CD,1691302276
331,iskateley,67.6803,53.1512,22.3,61,89,4.49,RU,1691302277
332,polyarnyy,69.1989,33.4478,10.92,93,100,3.79,RU,1691302277
333,tura,25.5198,90.2201,25.36,98,100,1.92,IN,1691302278
334,mlalo,-4.9333,38.9333,25.48,63,33,4.16,TZ,1691302278
335,carbonear,47.7332,-53.2148,15.7,87,100,3.24,CA,1691302278
336,constantia,44.1833,28.65,26.5,79,1,3.44,RO,1691302279
337,el alto,-4.2714,-81.2147,19.58,79,50,6.6,PE,1691302279
338,el haouaria,37.05,11.0144,24.82,65,2,12.2,TN,1691302280
339,hasaki,35.7333,140.8333,34.05,80,4,6.28,JP,1691302280
340,west end,26.6833,-78.9667,27.99,74,70,5.41,BS,1691302281
341,borodinskiy,53.9986,37.8179,26.8,56,0,3.72,RU,1691302281
342,khon kaen,16.5,102.0833,30.04,63,100,1.25,TH,1691302281
343,kailua-kona,19.6406,-155.9956,26.98,79,75,1.54,US,1691302282
344,chonchi,-42.6128,-73.8092,5.62,96,80,1.09,CL,1691302283
345,kavieng,-2.5744,150.7967,28.28,66,38,5.89,PG,1691302283
346,chardara,41.2547,67.9692,32.19,25,100,3.74,KZ,1691302283
347,phek,25.6667,94.5,20.59,94,100,0.32,IN,1691302098
348,pitimbu,-7.4706,-34.8086,22.33,88,31,4.97,BR,1691302006
349,inarajan village,13.2736,144.7484,31.54,82,73,1.73,GU,1691301998
350,bac giang,21.2667,106.2,31.04,94,100,2.9,VN,1691302285
351,khamharia,20.9833,82.2667,28.5,75,100,7.81,IN,1691302285
352,fengrun,39.8333,118.1167,29.01,56,47,2.09,CN,1691302286
353,opuwo,-18.0607,13.84,12.92,36,0,3.85,NA,1691302286
354,basse-terre,16.1667,-61.6667,25.58,94,75,2.57,GP,1691302287
355,rio grande,-32.035,-52.0986,15.53,98,31,5.89,BR,1691302288
356,bandarbeyla,9.4942,50.8122,28.97,54,72,14.35,SO,1691302288
357,donggongon,5.907,116.1015,31.96,66,20,2.06,MY,1691302289
358,port moresby,-9.4431,147.1797,27.68,61,20,7.72,PG,1691302289
359,rio gallegos,-51.6226,-69.2181,-1.08,64,83,16.1,AR,1691302176
360,al wajh,26.2455,36.4525,32.07,39,4,2.49,SA,1691302290
361,talakan,50.3167,130.3667,27.35,32,0,2.11,RU,1691302290
362,santa rita,-7.1139,-34.9781,22.37,100,40,3.09,BR,1691302074
363,zhengjiatun,43.5064,123.5064,21.43,74,93,6.93,CN,1691302291
364,trinidad,-14.8333,-64.9,25.11,52,80,1.85,BO,1691302291
365,abepura,-2.6333,140.5833,32.45,52,20,1.03,ID,1691302292
366,long,18.0761,99.8326,31.73,73,100,2.9,TH,1691302213
367,zagora,30.3484,-5.8365,31.34,14,4,1.88,MA,1691302293
368,magnitka,55.3475,59.6961,19.99,79,98,1.98,RU,1691302293
369,pimentel,-6.8367,-79.9342,22.16,78,75,6.69,PE,1691302293
370,hsinchu,24.8036,120.9686,34.99,76,96,4.02,TW,1691302294
371,la sarre,48.8002,-79.1996,9.98,80,0,0.95,CA,1691302294
372,kupino,54.3663,77.2981,25.48,37,20,6.36,RU,1691302294
373,juneau,58.3019,-134.4197,17.0,67,20,0.0,US,1691302295
374,oumache,34.6929,5.6809,27.0,38,0,5.74,DZ,1691302295
375,kyshtovka,56.555,76.6271,23.62,40,1,4.67,RU,1691302296
376,aden,12.7794,45.0367,30.59,77,96,5.96,YE,1691302296
377,villa gesell,-37.2639,-56.973,11.14,84,100,3.19,AR,1691302256
378,luanda,-8.8368,13.2343,20.93,87,100,0.72,AO,1691302297
379,vreed-en-hoop,6.8093,-58.198,25.18,90,3,1.81,GY,1691302297
380,nadi,-17.8,177.4167,24.0,88,75,2.57,FJ,1691302243
381,kertih,4.5141,103.4483,31.68,60,22,3.53,MY,1691302298
382,necochea,-38.5473,-58.7368,7.85,69,100,3.96,AR,1691302299
383,port macquarie,-31.4333,152.9167,14.94,87,54,6.01,AU,1691302299
384,usogorsk,63.4106,48.6872,21.56,65,21,3.58,RU,1691302299
385,likiep,9.8251,169.3107,28.39,74,13,6.29,MH,1691302300
386,dourbali,11.8091,15.8632,24.88,81,100,1.61,TD,1691302300
387,kerikeri,-35.2268,173.9474,13.28,89,100,0.34,NZ,1691302301
388,glace bay,46.1969,-59.957,17.1,94,100,2.68,CA,1691302301
389,vallenar,-28.5708,-70.7581,11.76,87,70,0.79,CL,1691302301
390,jayapura,-2.5333,140.7,32.66,74,60,3.82,ID,1691302015
391,kovdor,67.5662,30.4758,11.16,94,93,2.24,RU,1691302302
392,changji,44.0167,87.3167,38.44,16,0,3.0,CN,1691302303
393,novodvinsk,64.4165,40.8122,19.73,77,39,2.8,RU,1691302303
394,northam,51.0333,-4.2167,14.66,87,5,5.0,GB,1691302304
395,porbandar,21.6422,69.6093,27.88,78,99,9.43,IN,1691302304
396,gereida,11.2811,25.1414,25.53,70,99,2.97,SD,1691302304
397,walvis bay,-22.9575,14.5053,15.2,59,0,3.15,NA,1691302305
398,muang phon-hong,18.4928,102.4172,24.33,97,100,1.2,LA,1691302305
399,tawau,4.2498,117.8871,30.14,66,37,2.17,MY,1691302305
400,port blair,11.6667,92.75,29.39,75,84,7.55,IN,1691302306
401,greymouth,-42.4667,171.2,9.44,88,100,0.49,NZ,1691302306
402,bamboo flat,11.7,92.7167,29.45,75,87,7.49,IN,1691302307
403,coracao de jesus,-16.6853,-44.365,17.1,48,12,3.35,BR,1691302307
404,valuyki,50.2035,38.1067,29.83,45,10,5.88,RU,1691302307
405,torrington,41.8007,-73.1212,19.07,89,100,0.89,US,1691302308
406,acapulco de juarez,16.8634,-99.8901,27.9,78,75,0.0,MX,1691302210
407,paragominas,-2.9667,-47.4833,21.24,92,6,1.43,BR,1691302309
408,prieska,-29.6641,22.7474,13.67,36,10,2.05,ZA,1691302309
409,kampung tanjung karang,3.4242,101.1849,31.12,66,45,3.31,MY,1691302310
410,prince rupert,54.3161,-130.3201,17.05,93,0,1.54,CA,1691302311
411,marsh harbour,26.5412,-77.0636,29.37,75,61,5.48,BS,1691302311
412,kaele,10.1092,14.4508,22.86,86,100,2.06,CM,1691302312
413,pisco,-13.7,-76.2167,15.03,82,0,2.06,PE,1691302312
414,hotan,37.0997,79.9269,29.21,32,100,3.91,CN,1691302312
415,tash-kumyr,41.3461,72.2171,35.52,14,97,3.93,KG,1691302313
416,las lomitas,-24.7096,-60.593,23.04,42,0,3.07,AR,1691302313
417,tot'ma,59.9747,42.7642,22.86,58,38,1.54,RU,1691302314
418,xinqing,48.2333,129.5,25.62,34,1,3.19,CN,1691302314
419,callao,-12.0667,-77.15,20.16,73,40,4.12,PE,1691302314
420,rampur,28.8167,79.0333,29.28,58,67,3.39,IN,1691302260
421,almeirim,-1.5233,-52.5817,23.51,83,1,1.46,BR,1691302315
422,arish,31.1316,33.7984,28.63,38,0,1.72,EG,1691302316
423,alaghsas,17.0187,8.0168,28.06,55,85,4.82,NE,1691302316
424,altai,46.3722,96.2583,20.51,30,40,7.12,MN,1691302317
425,sao vicente,-23.9631,-46.3919,19.59,26,16,1.38,BR,1691302317
426,zehdenick,52.9785,13.3317,16.13,92,100,0.44,DE,1691302318
427,melfort,52.8667,-104.6177,13.07,82,42,3.6,CA,1691302318
428,port hedland,-20.3167,118.5667,29.03,34,40,9.26,AU,1691302319
429,kampen,52.555,5.9111,15.03,95,99,1.87,NL,1691302319
430,howard springs,-12.497,131.047,31.95,20,2,4.81,AU,1691302320
431,yunyang,33.4474,112.7142,31.24,66,80,5.1,CN,1691302320
432,loiza,18.4313,-65.8802,27.86,92,40,5.66,PR,1691302320
433,newnham,-41.3833,147.1333,15.37,54,39,0.0,AU,1691302321
434,leh,34.1667,77.5833,20.45,44,44,2.8,IN,1691302321
435,isangel,-19.55,169.2667,21.8,83,73,7.43,VU,1691302068
436,rouissat,31.9243,5.3502,27.47,35,0,2.49,DZ,1691302323
437,miranda,3.2499,-76.2281,22.07,72,87,1.93,CO,1691302323
438,klaksvik,62.2266,-6.589,10.51,82,87,1.71,FO,1691302323
439,san isidro,-12.1167,-77.05,19.77,81,40,4.12,PE,1691302324
440,qamdo,31.1667,97.2333,13.74,51,92,2.76,CN,1691302324
441,phan rang-thap cham,11.5667,108.9833,37.04,38,35,8.53,VN,1691302324
442,kharp,66.8014,65.8081,24.84,54,0,2.59,RU,1691302325
443,hobyo,5.3505,48.5268,27.47,63,69,11.38,SO,1691302325
444,miles city,46.4083,-105.8406,19.54,72,100,3.09,US,1691302326
445,fort wellington,6.4,-57.6,26.12,85,2,2.53,GY,1691302326
446,awjilah,29.1081,21.2869,28.57,55,0,7.07,LY,1691302327
447,banda aceh,5.5577,95.3222,30.45,65,84,5.31,ID,1691302327
448,kargasok,59.0556,80.8572,23.03,40,9,3.06,RU,1691302327
449,fada,9.5667,8.3,20.35,96,100,2.23,NG,1691302328
450,jodhpur,26.2867,73.03,32.21,52,65,9.23,IN,1691302171
451,shambu,9.5667,37.1,11.62,94,100,0.61,ET,1691302037
452,zdvinsk,54.7021,78.661,24.52,40,0,5.53,RU,1691302330
453,itupiranga,-5.1347,-49.3267,23.18,60,56,0.62,BR,1691302330
454,solnechnyy,50.7214,136.6319,24.16,33,6,3.2,RU,1691302331
455,cherry valley,33.9725,-116.9772,26.72,53,0,1.15,US,1691302234
456,kalmunai,7.4167,81.8167,33.27,51,95,4.47,LK,1691302331
457,luganville,-15.5333,167.1667,24.09,84,87,5.56,VU,1691302332
458,zhangjiakou,40.81,114.8794,30.35,52,41,2.86,CN,1691302198
459,antsiranana,-12.2787,49.2917,25.45,63,67,8.92,MG,1691302333
460,mar del plata,-38.0023,-57.5575,10.05,88,100,0.89,AR,1691302333
461,berezovo,63.9381,65.0419,26.6,42,71,2.58,RU,1691302333
462,nakonde,-9.3421,32.745,16.12,67,0,4.24,ZM,1691302334
463,murzuq,25.9155,13.9184,32.89,14,0,1.88,LY,1691302334
464,tierp,60.3427,17.5181,14.99,89,100,0.06,SE,1691302335
465,mto wa mbu,-3.35,35.85,19.82,73,76,3.65,TZ,1691302335
466,puerto deseado,-47.7503,-65.8938,9.19,35,36,13.75,AR,1691302335
467,sahar,24.3643,56.7468,31.84,74,16,3.42,OM,1691302336
468,palatka,29.6486,-81.6376,26.13,95,48,1.25,US,1691302336
469,nogliki,51.8333,143.1667,16.99,70,96,2.0,RU,1691302191
470,teguise,29.0605,-13.564,21.12,78,75,5.66,ES,1691302173
471,kavalerovo,44.2661,135.0572,19.44,75,100,2.76,RU,1691302337
472,clowne,53.2745,-1.2641,11.83,81,87,3.01,GB,1691302338
473,lingcheng,22.7072,110.3492,29.16,80,85,4.81,CN,1691302338
474,aksu,41.1231,80.2644,34.33,19,76,1.34,CN,1691302338
475,peace river,56.2501,-117.286,18.14,90,20,0.0,CA,1691302339
476,santa elena de uairen,4.6167,-61.1333,19.26,90,23,0.97,VE,1691302339
477,datong,40.0936,113.2914,32.19,33,22,3.66,CN,1691302340
478,williams lake,52.1415,-122.1445,22.76,37,0,4.12,CA,1691302340
479,puerto aysen,-45.4,-72.7,2.86,99,61,2.44,CL,1691302341
480,senador jose porfirio,-2.5908,-51.9542,24.01,81,11,1.26,BR,1691302084
481,okhotsk,59.3833,143.3,18.25,58,10,4.09,RU,1691302342
482,valle de la pascua,9.2155,-66.0073,23.38,94,21,1.06,VE,1691302342
483,harper,4.375,-7.7169,24.36,86,98,4.44,LR,1691302343
484,fenoarivo be,-18.4333,46.5667,19.05,54,35,6.32,MG,1691302343
485,mao,39.8885,4.2658,23.31,64,20,3.09,ES,1691302344
486,benito juarez,19.385,-99.165,17.22,71,100,4.12,MX,1691302344
487,sitka,57.0531,-135.33,18.94,77,75,3.6,US,1691302344
488,vorkuta,67.5,64.0,27.57,44,2,5.2,RU,1691302345
489,kone,-21.0595,164.8658,20.9,72,36,4.49,NC,1691302345
490,roma,43.2128,-75.4557,13.82,94,0,0.0,US,1691302221
491,haiku-pauwela,20.9219,-156.3051,23.36,77,40,5.14,US,1691302346
492,svetlyy,54.675,20.1347,21.03,98,100,5.9,RU,1691302346
493,laojunmiao,39.8333,97.7333,27.95,17,0,4.6,CN,1691302347
494,garden city,42.3256,-83.331,22.0,79,100,3.6,US,1691302347
495,plettenberg bay,-34.0527,23.3716,13.85,89,50,2.77,ZA,1691302347
496,kayangel,8.0823,134.7173,28.18,80,99,8.07,PW,1691302348
497,taulaga,-11.0553,-171.0883,28.14,78,29,5.23,AS,1691302336
498,kanniyakumari,8.0833,77.5667,30.67,63,69,9.62,IN,1691302349
499,quellon,-43.1167,-73.6167,1.14,100,0,0.0,CL,1691302349
500,seven pagodas,12.6264,80.1722,35.03,54,73,3.29,IN,1691302350
501,semey,50.4111,80.2275,29.12,42,0,4.0,KZ,1691302350
502,mutuali,-14.8706,37.0044,21.17,60,9,1.38,MZ,1691302351
503,menongue,-14.6585,17.691,10.4,49,0,2.68,AO,1691302351
504,ketchikan,55.3422,-131.6461,19.26,77,0,3.09,US,1691302351
505,porto velho,-8.7619,-63.9039,24.03,88,0,0.51,BR,1691302319
506,tabas,33.5959,56.9244,36.41,15,0,1.39,IR,1691302352
507,beyneu,45.3167,55.2,34.76,21,23,4.12,KZ,1691302353
508,barcelos,41.5388,-8.6151,22.6,82,1,2.28,PT,1691302353
509,maxixe,-23.8597,35.3472,20.14,68,0,2.48,MZ,1691302353
510,krasnoufimsk,56.6059,57.7669,21.84,82,36,5.62,RU,1691302354
511,toliara,-23.35,43.6667,24.05,46,2,3.8,MG,1691302355
512,shar'ya,58.3686,45.5144,23.71,61,30,1.49,RU,1691302356
513,teplyk,48.6657,29.745,27.79,47,0,7.59,UA,1691302356
514,holualoa,19.6228,-155.9522,24.91,80,75,1.54,US,1691302357
515,mumbwa,-14.9783,27.0619,15.79,67,0,4.49,ZM,1691302357
516,freetown,8.484,-13.2299,24.74,90,100,3.65,SL,1691302247
517,wynyard,-41.0,145.7167,13.38,67,74,2.8,AU,1691302358
518,askoy,60.4092,5.226,13.19,51,0,1.03,NO,1691302358
519,mexia,31.6799,-96.4822,31.83,59,0,5.66,US,1691302359
520,wulingyuan,29.3494,110.5441,35.43,54,25,1.39,CN,1691302359
521,pazarcik,37.4869,37.2996,28.11,53,1,4.43,TR,1691302360
522,genhe,50.7833,121.5167,26.06,27,99,2.49,CN,1691302360
523,parabel',58.6978,81.4825,22.36,45,21,2.75,RU,1691302360
524,emerald,-23.5333,148.1667,24.08,32,0,6.29,AU,1691302361
525,sayansk,54.1088,102.1648,24.37,40,33,1.41,RU,1691302361
526,thurso,58.5927,-3.5259,8.14,81,100,0.57,GB,1691302362
527,laguna,38.421,-121.4238,29.06,56,0,3.09,US,1691302363
528,high river,50.5834,-113.8687,16.29,71,92,1.13,CA,1691302363
529,susuman,62.7833,148.1667,12.4,64,86,4.21,RU,1691302363
530,maquoketa,42.0689,-90.6657,20.72,87,20,2.5,US,1691302364
531,yuzhno-kurilsk,44.0306,145.8556,13.88,97,100,3.9,RU,1691302364
532,mwadui,-3.55,33.6,20.71,57,27,6.47,TZ,1691302364
533,kaoma,-14.7833,24.8,14.17,65,0,3.82,ZM,1691302365
534,santa rosa,14.3122,121.1114,32.27,67,67,8.4,PH,1691302365
535,kure,34.2333,132.5667,34.15,71,5,3.26,JP,1691302366
536,cadale,2.7603,46.3222,26.42,74,86,9.19,SO,1691302366
537,chanika,-5.4167,38.0167,20.75,78,65,3.13,TZ,1691302366
538,vydrino,51.485,104.8461,16.29,83,100,1.27,RU,1691302367
539,howrah,22.5892,88.3103,28.0,69,100,4.12,IN,1691302367
540,trollhattan,58.2333,12.4167,15.22,94,100,1.03,SE,1691302367
541,colonia menno,-22.3667,-59.8167,24.11,36,0,5.13,PY,1691302368
542,san juan de miraflores,-12.1629,-76.9635,19.29,81,65,4.14,PE,1691302368
543,minot,48.2325,-101.2963,18.06,67,0,4.12,US,1691302368
544,dunkirk,51.05,2.3667,14.49,41,96,3.58,FR,1691302369
545,olinda,-8.0089,-34.8553,25.85,78,75,4.63,BR,1691302118
546,goz beida,13.95,20.55,24.55,79,95,2.65,TD,1691302370
547,suntar,62.1444,117.6319,28.97,34,86,4.22,RU,1691302370
548,la toma,-33.0526,-65.6238,11.78,72,0,2.54,AR,1691302370
549,mindelo,16.8901,-24.9804,26.75,74,75,6.17,CV,1691302371
550,semera,11.501,41.201,28.5,47,33,2.72,ET,1691302371
551,trairi,-3.2778,-39.2689,24.97,86,46,5.41,BR,1691302372
552,marka,1.7159,44.7717,25.9,76,61,8.17,SO,1691302372
553,princeville,45.7668,-61.2985,17.42,97,100,1.03,CA,1691302373
554,gwaram,11.2764,9.8858,22.98,89,100,2.09,NG,1691302373
555,cosala,24.4125,-106.6908,24.36,89,67,0.55,MX,1691302373
556,prado,-17.3411,-39.2208,20.79,76,10,2.3,BR,1691302374
557,crane,31.3974,-102.3501,30.76,30,16,8.36,US,1691302374
558,piti village,13.4626,144.6933,31.49,72,0,3.09,GU,1691302375
559,hafnarfjordur,64.0671,-21.9377,10.93,100,75,2.57,IS,1691302375
560,sur,22.5667,59.5289,33.65,49,49,3.77,OM,1691302375
561,ta`u,-14.2336,-169.5144,27.25,81,41,5.65,AS,1691302376
562,manggar,-2.8833,108.2667,28.65,72,17,5.95,ID,1691302376
563,acarau,-2.8856,-40.12,25.25,86,48,7.46,BR,1691302374
564,beni,0.5,29.4667,20.48,67,99,1.45,CD,1691302377
565,kihangara,-2.5833,33.35,21.84,54,56,6.81,TZ,1691302378
566,taoudenni,22.6783,-3.9836,34.89,13,1,5.91,ML,1691302378
567,lebanon,36.2081,-86.2911,24.67,95,0,1.54,US,1691302109
568,potsdam,52.3989,13.0657,17.27,92,100,1.2,DE,1691302381
569,baruun-urt,46.6806,113.2792,27.1,38,13,1.95,MN,1691302381
570,guerrero negro,27.9769,-114.0611,20.96,78,8,2.75,MX,1691302381
571,skelleftea,64.7507,20.9528,15.2,67,17,1.03,SE,1691302382
572,kadugli,11.0167,29.7167,22.33,85,100,1.54,SD,1691302382
573,sterling,39.0062,-77.4286,23.62,86,40,2.24,US,1691302383
574,al artawiyah,26.5053,45.3444,37.41,8,3,4.78,SA,1691302245
575,taber,49.8167,-112.1518,15.01,74,100,0.51,CA,1691302383
576,agat village,13.3886,144.6585,31.52,73,0,3.09,GU,1691302384
577,morteros,-30.7116,-61.9986,16.28,83,0,1.85,AR,1691302384
578,yakeshi,49.2833,120.7333,22.25,53,95,0.3,CN,1691302385
579,kota kinabalu,5.9749,116.0724,31.99,66,20,2.06,MY,1691302385
580,xining,36.6167,101.7667,17.81,65,100,1.85,CN,1691302385
581,savonlinna,61.8699,28.88,19.03,77,0,1.54,FI,1691302386
582,alvorada,-12.48,-49.1247,24.17,40,0,1.31,BR,1691302386
583,urengoy,65.9667,78.3667,25.85,39,0,3.2,RU,1691302387
584,gurupi,-11.7292,-49.0686,24.61,41,0,2.04,BR,1691302278
585,ingeniero jacobacci,-41.3427,-69.5448,3.63,59,1,2.72,AR,1691302387
586,barentu,15.1139,37.5928,21.59,75,77,1.33,ER,1691302388
587,chulym,55.0997,80.9572,23.91,33,0,4.8,RU,1691302275
588,montelibano,7.9829,-75.4229,25.42,94,100,0.93,CO,1691302389
589,gizo,-8.103,156.8419,26.59,75,100,6.78,SB,1691302389
590,peniche,39.3558,-9.3811,17.27,93,5,6.13,PT,1691302389
591,sechura,-5.5569,-80.8222,20.66,80,20,5.7,PE,1691302390
592,katsuura,35.1333,140.3,26.01,83,5,6.44,JP,1691302391
