City_ID,City,Lat,Lng,Max Temp,Humidity,Cloudiness,Wind Speed,Country,Date
0,palikir - national government center,6.9248,158.1611,28.47,94,100,4.12,FM,1691289821
1,nasiriyah,31.0521,46.261,36.08,15,0,0.77,IQ,1691289821
2,hamilton,39.1834,-84.5333,26.67,77,0,2.57,US,1691289793
3,port mathurin,-19.6833,63.4167,22.85,63,45,12.12,MU,1691289821
4,sao gabriel da cachoeira,-0.1303,-67.0892,25.34,79,75,0.86,BR,1691289821
5,grytviken,-54.2811,-36.5092,-6.08,81,100,4.69,GS,1691289822
6,waitangi,-43.9535,-176.5597,9.34,75,74,3.13,NZ,1691289822
7,dwarka,22.2394,68.9678,27.54,81,100,8.87,IN,1691289822
8,udachny,66.4167,112.4,16.36,47,1,6.82,RU,1691289822
9,san patricio,28.017,-97.5169,30.09,75,60,6.18,US,1691289822
10,vorgashor,67.5833,63.95,23.04,54,2,3.85,RU,1691289823
11,bafra,41.5678,35.9069,22.13,73,0,3.07,TR,1691289823
12,nemuro,43.3236,145.575,14.56,97,100,4.71,JP,1691289823
13,hawaiian paradise park,19.5933,-154.9731,25.41,88,100,3.6,US,1691289823
14,lompoc,34.6391,-120.4579,19.21,91,100,3.6,US,1691289823
15,hermanus,-34.4187,19.2345,11.56,87,10,3.64,ZA,1691289824
16,longyearbyen,78.2186,15.6401,9.91,93,75,9.77,SJ,1691289824
17,selizharovo,56.8519,33.4487,18.45,87,38,2.54,RU,1691289824
18,bethel,41.3712,-73.414,23.17,80,0,1.54,US,1691289541
19,iqaluit,63.7506,-68.5145,8.85,81,20,0.0,CA,1691289824
20,myeik,12.4333,98.6,27.66,85,100,5.36,MM,1691289825
21,navapolatsk,55.5363,28.6424,18.34,93,4,3.33,BY,1691289825
22,port-aux-francais,-49.35,70.2167,2.84,73,82,11.34,TF,1691289825
23,wailua homesteads,22.0669,-159.378,29.44,73,20,5.66,US,1691289825
24,puerto natales,-51.7236,-72.4875,-0.01,89,100,8.83,CL,1691289826
25,feijo,-8.1642,-70.3536,25.19,63,2,0.36,BR,1691289826
26,ushuaia,-54.8,-68.3,-1.19,86,100,18.01,AR,1691289826
27,puerto ayora,-0.7393,-90.3518,24.75,92,78,4.02,EC,1691289826
28,carnarvon,-24.8667,113.6333,23.8,57,2,0.48,AU,1691289826
29,isafjordur,66.0755,-23.124,9.78,80,96,2.3,IS,1691289827
30,kaihua,23.3687,104.28,24.34,78,99,1.42,CN,1691289827
31,blackmans bay,-43.0167,147.3167,14.07,67,95,0.82,AU,1691289827
32,utrik,11.2278,169.8474,28.54,73,74,6.91,MH,1691289827
33,chirilagua,13.2203,-88.1386,24.94,71,39,1.39,SV,1691289828
34,america dourada,-11.4553,-41.4361,17.8,82,21,4.85,BR,1691289828
35,edinburgh of the seven seas,-37.0676,-12.3116,13.59,83,99,18.65,SH,1691289828
36,oneonta,42.4529,-75.0638,17.38,96,100,0.17,US,1691289828
37,albany,42.6001,-73.9662,18.92,88,100,2.02,US,1691289828
38,vegreville,53.5001,-112.0518,20.39,73,1,2.06,CA,1691289739
39,karratha,-20.7377,116.8463,27.82,30,98,9.31,AU,1691289829
40,kaohsiung,22.6163,120.3133,30.97,85,75,7.72,TW,1691289829
41,west island,-12.1568,96.8225,24.99,88,75,8.23,CC,1691289829
42,tura,25.5198,90.2201,24.43,99,100,1.3,IN,1691289829
43,luderitz,-26.6481,15.1594,13.04,82,5,4.52,NA,1691289830
44,olonkinbyen,70.9221,-8.7187,3.46,97,100,9.73,SJ,1691289830
45,constitucion,-35.3333,-72.4167,11.7,85,95,2.89,CL,1691289830
46,gonabad,34.3529,58.6837,24.04,35,0,2.06,IR,1691289831
47,sinabang,2.4803,96.3801,28.9,72,76,0.35,ID,1691289831
48,badger,64.8,-147.5333,29.43,31,0,0.0,US,1691289831
49,port elizabeth,-33.918,25.5701,11.16,93,0,1.54,ZA,1691289743
50,yellowknife,62.456,-114.3525,20.31,42,75,2.06,CA,1691289831
51,papatowai,-46.5619,169.4708,9.36,88,98,3.64,NZ,1691289832
52,zhangjiakou,40.81,114.8794,27.29,63,26,3.02,CN,1691289832
53,prince rupert,54.3161,-130.3201,21.05,82,0,2.57,CA,1691289648
54,mukalla,14.5425,49.1242,28.28,77,42,0.42,YE,1691289832
55,howrah,22.5892,88.3103,27.0,94,100,3.09,IN,1691289832
56,conduaga,8.862,117.4893,30.77,62,5,4.45,PH,1691289833
57,adamstown,-25.066,-130.1015,20.82,73,58,8.52,PN,1691289833
58,al jawf,29.5,38.75,24.18,44,0,3.65,SA,1691289833
59,lihue,21.9789,-159.3672,29.77,65,20,5.66,US,1691289833
60,sao joao da barra,-21.6403,-41.0511,21.55,89,0,3.99,BR,1691289834
61,bilibino,68.0546,166.4372,5.86,85,100,2.79,RU,1691289834
62,ust-nera,64.5667,143.2,13.37,77,100,3.0,RU,1691289834
63,dzuunharaa,48.8523,106.4579,17.03,91,100,0.33,MN,1691289834
64,vilyuchinsk,52.9306,158.4028,24.15,65,17,1.98,RU,1691289834
65,salaberry-de-valleyfield,45.2501,-74.1325,19.9,94,17,0.0,CA,1691289835
66,bredasdorp,-34.5322,20.0403,8.91,94,6,2.55,ZA,1691289835
67,port augusta,-32.5,137.7667,15.75,41,38,1.79,AU,1691289835
68,kloulklubed,7.0419,134.2556,30.28,74,100,6.99,PW,1691289835
69,pastos bons,-6.6017,-44.0767,23.49,48,6,1.28,BR,1691289835
70,susuman,62.7833,148.1667,16.9,40,48,5.36,RU,1691289836
71,avarua,-21.2078,-159.775,22.03,83,75,3.6,CK,1691289836
72,uliastay,47.7417,96.8444,19.75,42,85,1.64,MN,1691289836
73,polyarnyy,69.1989,33.4478,10.72,95,100,6.07,RU,1691289836
74,kapa'a,22.0752,-159.319,30.18,73,20,5.66,US,1691289836
75,whitehorse,60.7161,-135.0538,25.73,31,75,6.17,CA,1691289545
76,rio grande,-32.035,-52.0986,15.53,95,0,4.73,BR,1691289837
77,thompson,55.7435,-97.8558,16.09,94,75,2.57,CA,1691289802
78,fenoarivo be,-18.4333,46.5667,15.04,71,48,5.6,MG,1691289837
79,jamestown,42.097,-79.2353,18.8,88,20,2.57,US,1691289706
80,torghay,49.6339,63.4981,24.91,54,8,5.01,KZ,1691289838
81,alaghsas,17.0187,8.0168,27.54,62,88,7.42,NE,1691289838
82,ribeira brava,32.65,-17.0667,22.35,78,6,1.4,PT,1691289838
83,margaret river,-33.95,115.0667,14.55,61,99,0.21,AU,1691289838
84,ugoofaaru,5.6667,73.0,27.9,78,67,6.19,MV,1691289839
85,gadzhiyevo,69.2551,33.3362,10.6,95,100,5.99,RU,1691289839
86,hithadhoo,-0.6,73.0833,28.42,70,100,3.72,MV,1691289839
87,lorengau,-2.0226,147.2712,26.49,83,100,5.93,PG,1691289839
88,pisco,-13.7,-76.2167,19.03,72,40,5.14,PE,1691289839
89,magdagachi,53.45,125.8,26.86,26,8,1.52,RU,1691289840
90,quellon,-43.1167,-73.6167,7.14,76,100,3.6,CL,1691289840
91,ilulissat,69.2167,-51.1,7.01,76,6,0.0,GL,1691289767
92,crane,31.3974,-102.3501,32.47,27,1,5.75,US,1691289840
93,cabedelo,-6.9811,-34.8339,23.37,84,5,5.25,BR,1691289840
94,tiksi,71.6872,128.8694,2.96,72,100,2.37,RU,1691289841
95,shimoda,34.6667,138.95,26.72,81,33,4.36,JP,1691289841
96,dunedin,-45.8742,170.5036,10.6,73,100,2.29,NZ,1691289841
97,vernon,50.2581,-119.2691,28.85,35,77,0.89,CA,1691289615
98,kodiak,57.79,-152.4072,12.73,88,100,3.6,US,1691289842
99,egilsstadir,65.2653,-14.3948,5.95,87,40,2.57,IS,1691289842
100,eydhafushi,5.1033,73.0708,27.71,78,96,5.53,MV,1691289842
101,buri,-23.7975,-48.5928,12.96,93,0,2.28,BR,1691289843
102,posto fiscal rolim de moura,-13.0833,-62.2667,24.63,51,1,0.72,BR,1691289843
103,sao luiz gonzaga,-28.4083,-54.9608,18.5,69,0,3.39,BR,1691289843
104,moab,38.5733,-109.5498,34.03,24,0,2.66,US,1691289603
105,olyokminsk,60.3736,120.4264,29.33,33,48,2.26,RU,1691289844
106,hirara,24.8,125.2833,29.15,89,75,8.23,JP,1691289844
107,sao jose da coroa grande,-8.8978,-35.1478,23.49,87,30,3.97,BR,1691289844
108,happy valley-goose bay,53.3168,-60.3315,17.17,88,100,3.09,CA,1691289844
109,guerrero negro,27.9769,-114.0611,21.13,77,5,5.35,MX,1691289845
110,klyuchi,52.2667,79.1667,20.26,77,100,2.03,RU,1691289845
111,abepura,-2.6333,140.5833,29.45,58,20,2.57,ID,1691289845
112,butembo,0.15,29.2833,13.86,85,31,1.73,CD,1691289845
113,igarka,67.4667,86.5833,20.93,41,0,2.57,RU,1691289846
114,roma,43.2128,-75.4557,17.08,86,0,2.06,US,1691289809
115,college,64.8569,-147.8028,29.48,36,40,0.89,US,1691289846
116,jacmel,18.2342,-72.5347,29.91,83,17,1.48,HT,1691289847
117,adrar,20.5022,-10.0711,29.7,16,5,4.89,MR,1691289847
118,mont-dore,-22.2833,166.5833,22.99,73,52,7.17,NC,1691289848
119,invercargill,-46.4,168.35,11.12,85,94,6.26,NZ,1691289848
120,sitka,57.0531,-135.33,20.94,68,75,2.57,US,1691289848
121,ola,59.5833,151.2833,22.86,51,7,0.9,RU,1691289848
122,bafia,4.75,11.2333,21.46,99,100,0.92,CM,1691289848
123,mabaruma,8.2,-59.7833,24.27,91,83,1.24,GY,1691289849
124,sur,22.5667,59.5289,29.39,65,55,3.09,OM,1691289849
125,port alfred,-33.5906,26.891,19.85,40,75,4.63,ZA,1691289849
126,marsh harbour,26.5412,-77.0636,29.56,75,76,4.84,BS,1691289850
127,talnakh,69.4865,88.3972,22.34,36,21,1.29,RU,1691289850
128,afaahiti,-17.75,-149.2833,26.93,75,46,0.53,PF,1691289851
129,soresina,45.2865,9.857,19.12,81,18,1.45,IT,1691289852
130,xiva,41.3783,60.3639,23.99,30,2,3.16,UZ,1691289852
131,yamada,39.4667,141.95,30.58,67,34,5.86,JP,1691289853
132,hobyo,5.3505,48.5268,24.44,82,17,10.87,SO,1691289853
133,kon tum,14.35,108.0,25.9,80,99,3.52,VN,1691289853
134,cidreira,-30.1811,-50.2056,17.57,95,50,6.61,BR,1691289854
135,anori,-3.7728,-61.6442,25.72,63,63,0.41,BR,1691289855
136,cabo san lucas,22.8909,-109.9124,30.17,74,20,3.6,MX,1691289855
137,boundiali,9.5217,-6.4869,21.83,95,100,2.01,CI,1691289855
138,aasiaat,68.7098,-52.8699,0.82,82,10,2.63,GL,1691289855
139,nuuk,64.1835,-51.7216,9.34,76,3,2.57,GL,1691289639
140,constantia,44.1833,28.65,23.38,91,0,4.15,RO,1691289856
141,foumbot,5.5079,10.6356,18.11,98,100,0.69,CM,1691289856
142,haiku-pauwela,20.9219,-156.3051,28.01,62,40,10.29,US,1691289856
143,masterton,-40.9597,175.6575,9.94,69,48,1.6,NZ,1691289857
144,punta arenas,-53.15,-70.9167,-2.44,71,48,12.85,CL,1691289826
145,bishops stortford,51.8711,0.1587,12.09,91,63,5.14,GB,1691289857
146,lewistown,40.5992,-77.5714,22.41,94,0,0.0,US,1691289857
147,harnai,30.1005,67.9374,31.04,41,25,1.58,PK,1691289857
148,nagqu,31.5,92.0,10.34,65,36,3.99,CN,1691289858
149,port lincoln,-34.7333,135.8667,13.12,60,62,3.71,AU,1691289858
150,qamdo,31.1667,97.2333,8.6,76,100,1.49,CN,1691289858
151,ribeira grande,38.5167,-28.7,22.1,82,100,2.24,PT,1691289859
152,novyy urgal,51.0736,132.5642,24.85,29,0,1.98,RU,1691289859
153,stanley,54.868,-1.6985,10.07,91,100,3.79,GB,1691289859
154,enewetak,11.3474,162.3373,28.69,77,79,6.29,MH,1691289859
155,tual,-5.6667,132.75,25.62,76,45,9.33,ID,1691289859
156,al ghayzah,16.2079,52.176,25.48,89,61,2.22,YE,1691289860
157,lebu,-37.6167,-73.65,9.68,92,92,2.33,CL,1691289860
158,newman,37.3138,-121.0208,34.19,45,0,1.79,US,1691289693
159,lydenburg,-25.0978,30.4597,5.17,87,0,0.95,ZA,1691289860
160,crucecita,-28.95,-58.9833,24.69,40,0,5.63,AR,1691289861
161,anadyr,64.75,177.4833,12.28,81,75,11.0,RU,1691289861
162,guilin,25.2819,110.2864,30.06,67,38,1.71,CN,1691289861
163,paramaribo,5.8667,-55.1667,27.73,83,12,0.89,SR,1691289861
164,ulladulla,-35.35,150.4667,14.94,57,62,2.98,AU,1691289861
165,kovdor,67.5662,30.4758,11.16,94,100,2.24,RU,1691289862
166,mata-utu,-13.2816,-176.1745,27.87,76,84,2.49,WF,1691289690
167,oudenaarde,50.8567,3.6247,14.63,96,95,4.92,BE,1691289862
168,luwingu,-10.2621,29.9271,10.88,79,0,1.83,ZM,1691289862
169,st. john's,47.5649,-52.7093,15.99,85,75,3.6,CA,1691289862
170,saint-philippe,-21.3585,55.7679,20.77,74,93,5.95,RE,1691289863
171,marlin,31.3063,-96.898,35.23,33,0,3.68,US,1691289863
172,dryden,49.7833,-92.7503,24.16,64,100,3.09,CA,1691289863
173,mermoz boabab,14.7065,-17.4758,27.01,82,100,5.08,SN,1691289867
174,puerto leguizamo,-0.1934,-74.7819,22.16,96,98,0.37,CO,1691289868
175,trincomalee,8.5711,81.2335,28.34,71,96,7.47,LK,1691289868
176,merizo village,13.2658,144.6691,31.31,81,51,0.66,GU,1691289868
177,kapuskasing,49.4169,-82.4331,17.05,77,20,1.54,CA,1691289662
178,tralee,52.2704,-9.7026,13.01,92,77,3.36,IE,1691289570
179,las animas,-39.8087,-73.2182,0.08,98,93,1.06,CL,1691289869
180,anshun,26.25,105.9333,24.32,78,49,2.89,CN,1691289869
181,ancud,-41.8697,-73.8203,5.91,88,98,1.52,CL,1691289869
182,sabang,5.8933,95.3214,28.36,75,39,5.65,ID,1691289869
183,sao felix do xingu,-6.6447,-51.995,24.41,55,4,0.57,BR,1691289870
184,kristiansund,63.1115,7.732,12.36,82,100,0.0,NO,1691289870
185,ngerkeai,7.5546,134.6361,31.27,74,99,5.91,PW,1691289870
186,hammerfest,70.6634,23.6821,10.25,87,100,0.0,NO,1691289870
187,neverkino,52.7854,46.7417,20.94,74,0,2.93,RU,1691289871
188,pierre,44.3683,-100.351,18.51,100,100,11.83,US,1691289871
189,alofi,-19.0595,-169.9187,22.94,100,84,2.57,NU,1691289871
190,turpan,42.9333,89.1667,38.9,13,55,3.46,CN,1691289871
191,torgau,51.5667,13.0,16.96,91,100,1.98,DE,1691289766
192,chonchi,-42.6128,-73.8092,6.73,96,91,1.07,CL,1691289872
193,atafu village,-8.5421,-172.5159,28.45,75,35,3.52,TK,1691289872
194,nabire,-3.3667,135.4833,30.7,57,71,2.98,ID,1691289872
195,dudinka,69.4058,86.1778,22.57,45,12,2.03,RU,1691289872
196,fort bragg,35.139,-79.006,27.85,76,0,0.45,US,1691289872
197,lakatoro,-16.0999,167.4164,25.25,74,74,6.03,VU,1691289873
198,brisas de zicatela,15.8369,-97.0419,29.29,58,75,1.03,MX,1691289873
199,eraan,9.0629,117.7016,31.41,59,4,3.87,PH,1691289873
200,bodo,67.28,14.405,11.02,94,100,1.03,NO,1691289873
201,omidiyeh,30.7597,49.705,30.93,55,14,0.0,IR,1691289873
202,petropavlovsk-kamchatsky,53.0452,158.6483,23.33,53,40,3.0,RU,1691289874
203,nazarovo,56.0064,90.3914,16.86,45,12,3.09,RU,1691289874
204,borogontsy,62.6683,131.1683,26.3,36,84,1.65,RU,1691289874
205,sola,-13.8833,167.55,24.91,80,95,8.02,VU,1691289874
206,padang,-0.9492,100.3543,28.03,71,37,1.47,ID,1691289874
207,bodaybo,57.8506,114.1933,25.29,53,100,0.81,RU,1691289875
208,joypur hat,25.0943,89.0217,28.14,86,100,2.94,BD,1691289875
209,vorkuta,67.5,64.0,23.45,54,1,3.49,RU,1691289875
210,nanao,37.05,136.9667,37.96,54,2,2.42,JP,1691289875
211,chu,43.5983,73.7614,29.81,21,100,2.16,KZ,1691289876
212,east london,-33.0153,27.9116,19.1,34,5,3.12,ZA,1691289876
213,yaren,-0.5472,166.916,29.08,70,18,2.78,NR,1691289876
214,north bend,43.4065,-124.2243,21.8,88,100,6.17,US,1691289876
215,necochea,-38.5473,-58.7368,7.95,72,100,3.58,AR,1691289876
216,talcahuano,-36.7167,-73.1167,11.82,100,75,2.57,CL,1691289877
217,geraldton,-28.7667,114.6,17.23,88,1,3.09,AU,1691289877
218,el calafate,-50.3408,-72.2768,2.54,91,29,6.68,AR,1691289877
219,belmonte,-15.8631,-38.8828,21.4,71,0,2.48,BR,1691289877
220,port saint john's,-31.6229,29.5448,17.19,41,0,2.96,ZA,1691289878
221,noosa heads,-26.3833,153.15,20.19,67,19,6.21,AU,1691289606
222,gebeit,21.0667,36.3167,27.99,50,86,6.95,SD,1691289878
223,tofol,5.3248,163.0078,29.88,84,100,5.14,FM,1691289878
224,fale old settlement,-9.3852,-171.2468,28.42,75,9,4.59,TK,1691289879
225,lagoa,39.05,-27.9833,21.73,73,83,1.85,PT,1691289879
226,bastia,42.6667,9.3333,23.5,58,0,2.06,FR,1691289720
227,ormara,25.2088,64.6357,27.24,82,100,6.31,PK,1691289879
228,kodinsk,58.6881,99.1844,13.76,68,100,2.33,RU,1691289879
229,bochum,51.4833,7.2167,15.84,80,73,2.68,DE,1691289857
230,leava,-14.3,-178.1667,27.64,75,87,2.7,WF,1691289880
231,hami,42.8,93.45,34.09,14,11,3.68,CN,1691289840
232,codrington,-38.2667,141.9667,13.45,64,100,2.54,AU,1691289880
233,bo phloi,14.3236,99.5161,30.16,60,100,4.63,TH,1691289880
234,anaconda,46.1285,-112.9423,14.55,82,91,1.25,US,1691289881
235,tazacorte,28.629,-17.9293,21.75,88,75,1.54,ES,1691289881
236,hadithah,34.1397,42.3781,30.43,42,0,6.02,IQ,1691289881
237,praia da vitoria,38.7333,-27.0667,22.14,83,20,0.46,PT,1691289881
238,malango,-2.9627,119.9001,26.15,67,50,2.11,ID,1691289881
239,kudat,6.8837,116.8477,30.96,70,20,2.68,MY,1691289882
240,jindabyne,-36.4167,148.6333,12.94,47,22,1.43,AU,1691289882
241,aurangabad,19.8833,75.3333,23.5,83,100,5.4,IN,1691289882
242,la passe,45.5549,-0.8967,16.1,80,7,5.29,FR,1691289882
243,tyuratam,45.6507,63.3156,27.48,38,26,2.97,KZ,1691289882
244,duluth,46.7833,-92.1066,20.02,72,40,3.09,US,1691289883
245,bonthe,7.5264,-12.505,24.71,90,100,3.76,SL,1691289883
246,salekhard,66.53,66.6019,22.38,49,2,2.92,RU,1691289883
247,sarupathar,26.1984,93.8094,25.81,95,100,0.38,IN,1691289883
248,el granada,37.5027,-122.4694,24.18,82,75,11.32,US,1691289779
249,tazovsky,67.4667,78.7,17.73,57,0,2.57,RU,1691289884
250,touros,-5.1989,-35.4608,25.27,76,18,7.07,BR,1691289884
251,tobelo,1.7284,128.0095,28.96,70,100,2.23,ID,1691289884
252,yamba,-5.9,22.3,20.04,41,5,1.57,CD,1691289884
253,iskateley,67.6803,53.1512,19.23,81,82,3.63,RU,1691289885
254,cockburn town,21.4612,-71.1419,28.98,84,1,11.0,TC,1691289885
255,acapulco de juarez,16.8634,-99.8901,28.9,74,100,2.06,MX,1691289850
256,woolgoolga,-30.1106,153.2007,20.58,63,12,4.17,AU,1691289886
257,perelyub,51.8667,50.3667,25.92,52,0,4.26,RU,1691289886
258,smithers,54.7804,-127.1743,27.18,36,40,2.06,CA,1691289846
259,bria,6.5423,21.9863,20.64,98,100,0.79,CF,1691289886
260,arraial do cabo,-22.9661,-42.0278,20.66,91,1,5.41,BR,1691289887
261,daud khel,32.875,71.5701,34.64,50,4,4.22,PK,1691289887
262,winneba,5.3511,-0.6231,23.53,93,100,4.97,GH,1691289887
263,whitecourt,54.1502,-115.6855,22.58,46,75,2.57,CA,1691289616
264,sibolga,1.7427,98.7792,29.99,63,48,1.21,ID,1691289887
265,isiro,2.7739,27.616,18.28,98,89,1.1,CD,1691289888
266,kulhudhuffushi,6.6221,73.07,27.99,77,37,7.04,MV,1691289888
267,prince george,53.9166,-122.753,28.69,26,0,2.57,CA,1691289677
268,spearfish,44.4908,-103.8594,16.48,91,75,3.09,US,1691289871
269,thurso,58.5927,-3.5259,8.14,80,99,0.6,GB,1691289888
270,raahe,64.6833,24.4833,14.98,82,2,5.23,FI,1691289889
271,hinganghat,20.5667,78.8333,27.0,76,34,7.08,IN,1691289889
272,georgetown,5.4112,100.3354,30.96,79,20,4.12,MY,1691289889
273,ardakan,32.31,54.0175,29.74,15,0,1.02,IR,1691289889
274,castillos,-34.1667,-53.8333,12.17,71,83,3.17,UY,1691289889
275,daru,-9.0763,143.2092,25.88,71,54,6.84,PG,1691289893
276,tolanaro,-25.0319,46.9987,19.04,82,40,5.14,MG,1691289893
277,arti,56.4234,58.5328,19.2,89,76,2.16,RU,1691289894
278,lichinga,-13.3128,35.2406,14.05,94,20,6.26,MZ,1691289894
279,sisimiut,66.9395,-53.6735,6.54,82,8,0.66,GL,1691289894
280,olovyannaya,50.95,115.5667,19.17,57,100,4.64,RU,1691289894
281,trairi,-3.2778,-39.2689,25.26,86,57,5.13,BR,1691289894
282,ifrane,33.3333,-5.25,23.63,23,0,2.34,MA,1691289895
283,gobernador virasora,-28.05,-56.0333,20.02,54,0,2.71,AR,1691289895
284,marsa alam,25.0757,34.8918,31.47,31,23,3.42,EG,1691289895
285,toulepleu guere,6.574,-8.4259,21.63,99,98,1.22,CI,1691289895
286,stepnoye,51.4,46.8667,23.8,61,0,3.22,RU,1691289895
287,youhao,47.8667,128.8333,24.69,40,0,2.28,CN,1691289896
288,kharkhorin,47.1975,102.8238,19.78,55,30,2.84,MN,1691289896
289,lata,40.1629,-8.3327,16.15,54,0,1.49,PT,1691289896
290,nogales,31.3086,-110.9422,35.18,21,13,3.84,MX,1691289896
291,kalmunai,7.4167,81.8167,29.65,63,100,2.23,LK,1691289897
292,tongshan,34.1805,117.1571,30.61,72,99,1.85,CN,1691289897
293,as sulayyil,20.4607,45.5779,32.14,13,36,0.99,SA,1691289897
294,el bolson,-41.9667,-71.5167,1.44,97,67,2.09,AR,1691289897
295,belyy yar,53.6039,91.3903,18.94,63,0,4.0,RU,1691289897
296,ust'-ilimsk,58.0006,102.6619,17.33,47,4,1.28,RU,1691289898
297,vadso,70.0744,29.7487,11.49,76,75,4.12,NO,1691289898
298,verkh-chebula,56.0308,87.6218,17.81,44,7,2.71,RU,1691289898
299,broome,42.2506,-75.833,19.21,88,0,4.12,US,1691289898
300,usinsk,65.9939,57.5281,19.36,88,100,2.47,RU,1691289898
301,prainha,-1.8,-53.48,27.58,56,72,1.21,BR,1691289899
302,venice,27.0998,-82.4543,30.55,80,64,1.34,US,1691289691
303,kaa-khem,51.6833,94.7333,19.69,71,95,0.73,RU,1691289899
304,lionel town,17.8101,-77.2406,30.94,77,5,2.76,JM,1691289899
305,port-cartier,50.0334,-66.8654,15.12,94,100,0.92,CA,1691289899
306,pingyin,36.2831,116.4453,29.17,70,14,7.1,CN,1691289900
307,coahuayana de hidalgo,18.7,-103.6583,26.8,85,100,0.55,MX,1691289900
308,armacao de buzios,-22.7469,-41.8817,20.03,93,3,4.4,BR,1691289892
309,general villegas,-35.0328,-63.0125,11.69,68,100,3.77,AR,1691289900
310,wuhai,39.6647,106.8122,32.55,24,100,4.27,CN,1691289900
311,coquimbo,-29.9533,-71.3436,13.85,100,100,0.51,CL,1691289701
312,alice springs,-23.7,133.8833,17.75,48,0,3.6,AU,1691289901
313,holualoa,19.6228,-155.9522,26.91,72,40,5.14,US,1691289902
314,koh kong,11.6175,102.9806,28.5,75,100,4.92,KH,1691289903
315,saipan,15.1355,145.701,31.39,100,40,3.6,MP,1691289903
316,zalegoshch',52.9008,36.8869,20.95,71,0,2.96,RU,1691289903
317,bembereke,10.2283,2.6634,21.25,98,100,2.51,BJ,1691289905
318,malvan,16.0667,73.4667,27.07,81,88,5.9,IN,1691289906
319,bamboo flat,11.7,92.7167,29.05,74,40,5.14,IN,1691289907
320,kruisfontein,-34.0033,24.7314,13.9,76,74,3.61,ZA,1691289907
321,santa marta,11.2408,-74.199,30.5,72,98,4.02,CO,1691289773
322,pyinmana,19.7333,96.2167,26.83,83,96,4.49,MM,1691289907
323,wanparti,16.3667,78.0667,26.34,72,52,6.86,IN,1691289908
324,nar'yan-mar,67.6713,53.087,19.26,81,77,3.72,RU,1691289908
325,northam,51.0333,-4.2167,14.25,88,5,5.06,GB,1691289908
326,ravar,31.2656,56.8055,28.7,20,2,0.83,IR,1691289909
327,bocas del toro,9.3333,-82.25,24.54,78,68,1.79,PA,1691289909
328,visakhapatnam,17.69,83.2093,30.63,65,38,4.7,IN,1691289909
329,nogliki,51.8333,143.1667,14.81,82,89,1.18,RU,1691289909
330,mahibadhoo,3.7833,72.9667,27.89,77,99,5.02,MV,1691289910
331,santa ana,33.7456,-117.8678,31.86,70,0,3.6,US,1691289910
332,bardai,11.65,7.2333,22.15,89,100,2.96,NG,1691289910
333,inhambane,-23.865,35.3833,17.14,79,0,2.68,MZ,1691289910
334,ekpoma,6.7421,6.139,21.53,98,100,1.82,NG,1691289911
335,la ronge,55.1001,-105.2842,21.14,64,40,2.06,CA,1691289911
336,ilinge,-31.9768,27.0427,9.24,33,6,2.61,ZA,1691289911
337,santa terezinha,-29.9002,-50.0904,17.45,95,63,5.77,BR,1691289912
338,kaiyuan,23.6977,103.3037,24.48,82,100,1.21,CN,1691289912
339,along,28.1667,94.7667,23.96,99,100,0.08,IN,1691289912
340,flagstaff,35.1981,-111.6513,27.21,15,0,4.63,US,1691289912
341,mar del plata,-38.0023,-57.5575,10.01,80,0,4.12,AR,1691289783
342,harper,4.375,-7.7169,24.34,85,94,4.88,LR,1691289913
343,uturoa,-16.7333,-151.4333,25.99,68,0,2.8,PF,1691289913
344,buon ma thuot,12.6667,108.05,29.3,57,64,3.34,VN,1691289913
345,kalevala,65.2,31.1667,11.83,92,67,2.01,RU,1691289914
346,pontian kechil,1.4866,103.3896,31.11,81,4,3.06,MY,1691289914
347,spring creek,40.7266,-115.5859,23.83,51,52,4.37,US,1691289915
348,sumbawanga,-7.9667,31.6167,11.43,77,0,2.18,TZ,1691289915
349,cadale,2.7603,46.3222,24.13,85,90,7.33,SO,1691289915
350,temizhbekskaya,45.4456,40.845,24.69,42,0,6.68,RU,1691289915
351,remire-montjoly,4.9167,-52.2667,27.02,89,0,2.06,GF,1691289915
352,bijie,27.3125,105.2942,24.46,74,61,2.0,CN,1691289916
353,baiquan,47.5833,126.0833,22.82,63,0,4.25,CN,1691289916
354,isangel,-19.55,169.2667,22.74,78,78,9.12,VU,1691289916
355,dakhla,23.6848,-15.958,19.08,93,0,6.15,EH,1691289916
356,yazd,31.8972,54.3675,29.34,16,0,1.39,IR,1691289917
357,bandundu,-3.3167,17.3667,22.78,41,8,1.8,CD,1691289917
358,frankenberg,51.0667,8.8,13.38,98,77,2.21,DE,1691289917
359,kuraymah,18.55,31.85,25.28,76,100,11.81,SD,1691289917
360,tucuma,-0.1833,-50.05,25.08,88,7,2.43,BR,1691289917
361,mugia,43.1041,-9.2179,17.17,79,1,9.58,ES,1691289918
362,vuktyl,63.8567,57.3094,18.52,86,97,1.46,RU,1691289918
363,rabo de peixe,37.8,-25.5833,20.73,78,20,1.54,PT,1691289918
364,tutoia,-2.7619,-42.2744,25.52,86,100,4.73,BR,1691289918
365,aleksandrovskoye,44.7142,43.0008,20.91,57,0,3.64,RU,1691289919
366,sirjan,29.452,55.6814,26.48,20,5,1.41,IR,1691289919
367,namibe,-15.1961,12.1522,17.69,79,0,0.57,AO,1691289919
368,gumel,12.6279,9.3912,25.7,79,98,2.98,NG,1691289920
369,aykhal,66.0,111.5,17.01,40,11,8.22,RU,1691289920
370,dowagiac,41.9842,-86.1086,20.79,91,100,5.55,US,1691289920
371,xichang,27.8964,102.2634,24.93,74,100,0.9,CN,1691289920
372,hotan,37.0997,79.9269,28.83,31,100,2.41,CN,1691289921
373,novodvinsk,64.4165,40.8122,15.69,96,56,2.38,RU,1691289921
374,jobabo,20.9692,-76.2994,28.01,88,71,2.48,CU,1691289924
375,veraval,20.9,70.3667,26.84,86,100,7.91,IN,1691289925
376,mejit,10.2753,170.8646,28.2,76,100,5.7,MH,1691289925
377,suva,-18.1416,178.4415,23.71,88,100,2.06,FJ,1691289925
378,coyutla,20.25,-97.65,24.78,91,100,0.99,MX,1691289926
379,nagato,34.3833,131.2,31.4,68,20,2.17,JP,1691289660
380,whakatane,-37.9585,176.9854,13.21,61,10,2.81,NZ,1691289926
381,ambon,-3.6954,128.1814,26.56,74,40,7.9,ID,1691289926
382,mangrol,21.1167,70.1167,26.86,85,100,8.17,IN,1691289926
383,campina verde,-19.5356,-49.4864,20.58,29,0,1.76,BR,1691289754
384,lhokseumawe,5.1801,97.1507,29.08,69,17,0.74,ID,1691289927
385,kushiro,42.975,144.3747,19.53,94,75,2.06,JP,1691289927
386,hasaki,35.7333,140.8333,33.22,79,8,4.97,JP,1691289927
387,urangan,-25.3,152.9,19.97,68,6,7.12,AU,1691289927
388,thal,35.4791,72.2439,21.75,69,44,1.37,PK,1691289928
389,anahuac,27.2333,-100.15,34.52,34,0,10.69,MX,1691289928
390,karoi,-16.8099,29.6925,9.84,82,0,2.0,ZW,1691289928
391,tonosho,34.4833,134.1833,33.55,77,1,6.32,JP,1691289928
392,tarfaya,27.9358,-12.9218,20.6,92,5,4.29,MA,1691289928
393,ulanhot,46.0833,122.0833,21.29,63,100,5.96,CN,1691289929
394,bac lieu,9.285,105.7244,30.76,65,9,5.69,VN,1691289929
395,puerto montt,-41.4698,-72.9447,4.46,100,75,1.54,CL,1691289929
396,ladysmith,48.9829,-123.8194,25.24,64,100,2.06,CA,1691289929
397,lagos,6.5833,3.75,25.18,93,100,2.49,NG,1691289738
398,tanhacu,-14.0214,-41.2481,18.09,75,3,2.23,BR,1691289930
399,hadibu,12.65,54.0333,25.66,80,34,12.05,YE,1691289930
400,fort st. john,56.2499,-120.8529,24.94,41,75,3.6,CA,1691289930
401,aripuana,-9.1667,-60.6333,24.11,49,0,0.46,BR,1691289783
402,faya-largeau,17.9257,19.1043,30.76,56,57,4.49,TD,1691289931
403,rumbek,6.802,29.6912,20.98,96,100,1.31,SS,1691289931
404,colby,39.3958,-101.0524,21.67,69,0,4.63,US,1691289931
405,ta`u,-14.2336,-169.5144,27.2,80,52,4.16,AS,1691289931
406,kirkland lake,48.1446,-80.0377,10.16,93,0,0.0,CA,1691289931
407,mufumbwe,-13.6833,24.8,9.65,71,0,2.56,ZM,1691289932
408,kui buri,12.0828,99.8543,32.77,61,100,5.38,TH,1691289932
409,essaouira,31.5125,-9.77,20.72,97,20,1.54,MA,1691289932
410,tadine,-21.55,167.8833,21.17,71,45,9.06,NC,1691289932
411,floro,61.5996,5.0328,12.04,82,92,0.0,NO,1691289932
412,ceeldheer,3.8488,47.1806,23.54,84,80,7.29,SO,1691289933
413,upata,8.0086,-62.3989,25.66,88,87,1.3,VE,1691289933
414,erenhot,43.6475,111.9767,28.28,35,21,3.03,CN,1691289933
415,ati,13.2154,18.3353,24.54,82,81,2.72,TD,1691289933
416,kismayo,-0.3582,42.5454,23.99,85,99,7.81,SO,1691289934
417,nova sintra,14.8667,-24.7167,23.07,79,31,1.98,CV,1691289934
418,tacna,-18.0056,-70.2483,15.5,82,100,3.6,PE,1691289934
419,machilipatnam,16.1667,81.1333,31.67,65,55,6.27,IN,1691289935
420,qaqortoq,60.7167,-46.0333,5.53,93,1,1.51,GL,1691289935
421,kidal,18.4411,1.4078,28.39,55,96,4.92,ML,1691289935
422,yeniseysk,58.4497,92.1703,15.75,63,97,1.32,RU,1691289936
423,phalodi,27.1333,72.3667,29.42,64,77,9.65,IN,1691289936
424,keflavik,64.0049,-22.5624,11.24,93,100,4.63,IS,1691289936
425,at taj,24.2049,23.2857,30.63,16,1,5.16,LY,1691289936
426,pittsfield,42.4501,-73.2454,18.32,81,0,0.0,US,1691289937
427,bakchar,57.0186,82.0711,18.02,51,10,2.45,RU,1691289937
428,barcelos,41.5388,-8.6151,22.05,84,0,2.18,PT,1691289937
429,klaksvik,62.2266,-6.589,9.51,80,85,0.94,FO,1691289937
430,portland,45.5234,-122.6762,27.33,60,75,3.09,US,1691289682
431,villa gesell,-37.2639,-56.973,11.14,82,100,5.08,AR,1691289938
432,luau,-10.7073,22.2247,14.15,48,0,1.82,AO,1691289938
433,funafuti,-8.5243,179.1942,32.0,74,20,4.63,TV,1691289938
434,isla mujeres,21.2311,-86.731,29.03,81,0,4.18,MX,1691289816
435,canico,32.6333,-16.85,22.35,77,20,2.57,PT,1691289939
436,taro,-8.3862,115.28,24.0,59,13,1.53,ID,1691289939
437,metahara,8.9,39.9167,23.08,63,91,0.96,ET,1691289939
438,yuzhno-kurilsk,44.0306,145.8556,13.71,96,100,4.24,RU,1691289939
439,tosontsengel,48.7567,98.2839,17.4,58,99,2.53,MN,1691289940
440,madera,37.1666,-119.8343,33.05,19,0,2.59,US,1691289940
441,olutanga,7.3106,122.8464,28.11,75,4,1.8,PH,1691289940
442,kokpekty,48.75,82.4,26.26,35,78,2.66,KZ,1691289940
443,kailua-kona,19.6406,-155.9956,28.98,72,40,5.14,US,1691289940
444,lazaro cardenas,17.9583,-102.2,27.67,80,94,1.38,MX,1691289853
445,tahta,26.7693,31.5021,29.48,20,0,0.31,EG,1691289941
446,barkhan,29.8977,69.5256,28.92,53,58,2.01,PK,1691289941
447,peace river,56.2501,-117.286,24.17,53,20,1.03,CA,1691289941
448,sparti,37.0733,22.4297,19.67,92,24,2.31,GR,1691289941
449,corner brook,48.9667,-57.9484,14.09,84,100,3.56,CA,1691289942
450,nazca,-14.8333,-74.95,17.71,69,1,0.96,PE,1691289942
451,misratah,32.3754,15.0925,26.06,57,0,6.78,LY,1691289942
452,chennai,13.0878,80.2785,30.99,76,40,4.12,IN,1691289879
453,jining,35.405,116.5814,30.74,70,44,5.5,CN,1691289812
454,lupane,-18.9315,27.807,9.03,89,4,2.31,ZW,1691289943
455,kencong,-8.2833,113.3667,27.73,67,2,3.15,ID,1691289943
456,paradip garh,20.3167,86.6167,29.9,73,100,4.62,IN,1691289943
457,valparaiso,-33.0393,-71.6273,15.0,68,75,0.0,CL,1691289943
458,kenora,49.8167,-94.4337,23.54,78,75,2.06,CA,1691289709
459,fortuna,40.5982,-124.1573,17.74,93,75,4.12,US,1691289944
460,bozoum,6.3193,16.3799,20.48,96,100,0.89,CF,1691289944
461,arkadelphia,34.1209,-93.0538,30.8,94,1,1.04,US,1691289944
462,fort mcmurray,56.7268,-111.381,23.77,56,0,2.06,CA,1691289948
463,trancas,-26.2314,-65.2803,15.15,57,0,1.04,AR,1691289948
464,paita,-5.0892,-81.1144,21.01,82,6,6.72,PE,1691289758
465,bandarbeyla,9.4942,50.8122,25.59,68,62,11.68,SO,1691289948
466,ghat,24.9647,10.1728,31.56,12,0,2.53,LY,1691289948
467,mahina,-17.5065,-149.489,27.87,65,75,1.54,PF,1691289949
468,kavaratti,10.5669,72.642,28.21,75,80,7.94,IN,1691289949
469,wynyard,-41.0,145.7167,13.7,62,100,2.83,AU,1691289949
470,amga,60.8953,131.9608,27.32,32,19,1.96,RU,1691289949
471,inarajan village,13.2736,144.7484,31.54,81,53,0.3,GU,1691289953
472,itupiranga,-5.1347,-49.3267,24.18,56,42,1.03,BR,1691289954
473,al bawiti,28.3492,28.8659,29.38,21,0,2.53,EG,1691289954
474,bambamarca,-6.6833,-78.5333,10.88,96,79,2.16,PE,1691289954
475,arraias,-12.9288,-46.9437,22.19,32,2,2.25,BR,1691289954
476,madalena,41.2162,-8.3345,21.28,79,0,1.62,PT,1691289954
477,la'ie,21.6477,-157.9253,30.98,64,2,5.14,US,1691289955
478,springbok,-29.6643,17.8865,9.56,58,4,0.72,ZA,1691289955
479,papao,-17.75,-149.55,27.82,77,48,0.96,PF,1691289955
480,mohr,54.3528,9.7167,15.08,85,100,2.57,DE,1691289955
481,swan hill,-35.3378,143.5544,15.14,50,42,4.36,AU,1691289956
482,puerto baquerizo moreno,-0.9,-89.6,23.98,78,83,6.01,EC,1691289956
483,mount isa,-20.7333,139.5,24.87,27,0,5.66,AU,1691289956
484,lecheng,25.1238,113.3254,32.75,69,33,1.32,CN,1691289956
485,monforte de lemos,42.5216,-7.5142,17.54,98,68,1.3,ES,1691289956
486,walvis bay,-22.9575,14.5053,11.16,100,0,3.09,NA,1691289957
487,maxixe,-23.8597,35.3472,16.46,81,0,2.42,MZ,1691289957
488,ranapur,22.65,74.5333,23.99,90,100,5.51,IN,1691289957
489,senanga,-16.1167,23.2667,10.63,59,0,2.75,ZM,1691289957
490,amble,55.3333,-1.5833,11.47,93,100,4.12,GB,1691289957
491,pacific grove,36.6177,-121.9166,19.45,88,75,4.63,US,1691289958
492,taltal,-25.4,-70.4833,14.44,84,42,0.93,CL,1691289958
493,kirensk,57.7853,108.1119,18.28,71,94,1.79,RU,1691289958
494,kinkala,-4.3614,14.7644,19.34,85,2,2.84,CG,1691289958
495,baruun-urt,46.6806,113.2792,23.3,48,43,4.02,MN,1691289958
496,fortuna foothills,32.6578,-114.4119,42.05,8,0,4.12,US,1691289959
497,aztec,36.8222,-107.9929,31.67,53,0,4.17,US,1691289959
498,nuku'alofa,-21.1333,-175.2,22.19,83,100,6.17,TO,1691289959
499,tarrafal de sao nicolau,16.5667,-24.3667,25.1,78,100,6.83,CV,1691289959
500,parakou,9.3372,2.6303,21.78,97,100,1.99,BJ,1691289960
501,medina,24.4686,39.6142,32.24,9,0,2.06,SA,1691289902
502,aginskoye,51.1,114.53,14.98,92,100,4.05,RU,1691289960
503,hovd,48.0056,91.6419,22.95,30,0,0.79,MN,1691289960
504,ar rudayyif,34.3827,8.1555,23.87,52,0,3.43,TN,1691289960
505,labasa,-16.4167,179.3833,25.97,88,85,1.95,FJ,1691289961
506,burang,30.25,81.1667,13.52,70,99,1.63,CN,1691289961
507,kununurra,-15.7667,128.7333,28.99,30,2,5.14,AU,1691289831
508,luuq,3.7938,42.5445,23.18,72,100,10.24,SO,1691289961
509,richards bay,-28.783,32.0377,16.19,85,0,3.69,ZA,1691289962
510,dzhambeyty,50.2536,52.595,28.48,33,0,1.75,KZ,1691289962
511,ialibu,-6.2821,143.9935,17.9,70,99,2.39,PG,1691289962
512,punata,-17.55,-65.8333,13.88,77,0,3.0,BO,1691289962
513,qarazhal,48.0078,70.7903,26.42,42,22,4.37,KZ,1691289963
514,port blair,11.6667,92.75,29.02,74,40,5.14,IN,1691289963
515,nadi,-17.8,177.4167,26.0,78,75,2.57,FJ,1691289947
516,lan krabue,16.6,99.8489,28.51,70,100,0.97,TH,1691289963
517,cambridge,43.3601,-80.3127,18.82,84,0,2.06,CA,1691289896
518,magomeni,-6.8,39.25,22.21,94,75,2.57,TZ,1691289964
519,mount gambier,-37.8333,140.7667,13.56,56,100,1.72,AU,1691289964
520,berezovyy,51.6667,135.7,25.1,28,0,3.04,RU,1691289964
521,kharp,66.8014,65.8081,21.8,57,1,2.39,RU,1691289964
522,meadow lakes,61.6247,-149.6011,22.83,62,0,2.06,US,1691289965
523,ippy,6.2679,21.2247,20.12,98,100,0.8,CF,1691289965
524,saint-joseph,-21.3667,55.6167,20.21,75,50,6.56,RE,1691289965
525,sao paulo de olivenca,-3.3783,-68.8725,25.01,75,60,0.93,BR,1691289965
526,timmins,48.4669,-81.3331,12.9,88,20,0.0,CA,1691289965
527,juneau,58.3019,-134.4197,21.17,82,100,2.06,US,1691289728
528,pikalevo,59.5183,34.1664,14.29,77,91,2.13,RU,1691289966
529,howard springs,-12.497,131.047,31.01,26,2,6.07,AU,1691289966
530,tarnogskiy gorodok,60.4997,43.5761,16.85,84,45,1.18,RU,1691289966
531,new norfolk,-42.7826,147.0587,14.28,59,97,1.71,AU,1691289967
532,pinhao,-25.6956,-51.6597,12.4,77,0,1.82,BR,1691289967
533,naantali,60.4674,22.0243,12.46,100,99,1.54,FI,1691289970
534,naze,28.3667,129.4833,27.51,93,97,8.83,JP,1691289971
535,kirakira,-10.4544,161.9205,26.24,81,100,1.2,SB,1691289971
536,champerico,14.3,-91.9167,28.27,78,63,0.79,GT,1691289971
537,thai binh,20.45,106.3333,27.96,78,100,4.04,VN,1691289971
