City_ID,City,Lat,Lng,Max Temp,Humidity,Cloudiness,Wind Speed,Country,Date
0,waitangi,-43.9535,-176.5597,281.91,59,98,15.22,NZ,1691256323
1,pundong,-7.9522,110.3486,296.1,89,6,2.09,ID,1691256323
2,shitanjing,39.2342,106.3439,300.49,33,81,0.4,CN,1691256323
3,kita,13.0349,-9.4895,305.76,50,91,1.95,ML,1691256324
4,port lincoln,-34.7333,135.8667,283.96,64,79,2.34,AU,1691256324
5,pangody,65.85,74.4859,292.95,47,56,2.0,RU,1691256324
6,tongouson,5.0214,120.1328,301.58,77,51,3.71,PH,1691256325
7,fort st. john,56.2499,-120.8529,291.09,68,20,1.54,CA,1691256325
8,freetown,8.484,-13.2299,299.83,82,64,3.68,SL,1691256325
9,solwezi,-12.1688,26.3894,290.66,38,0,1.86,ZM,1691256325
10,mount pearl,47.5166,-52.7813,292.44,72,75,6.17,CA,1691256326
11,port-aux-francais,-49.35,70.2167,275.47,72,100,14.43,TF,1691256326
12,hamilton,39.1834,-84.5333,304.23,63,0,3.6,US,1691256326
13,zainsk,55.3195,52.0694,298.7,66,70,1.66,RU,1691256326
14,suva,-18.1416,178.4415,293.86,94,100,0.0,FJ,1691256327
15,afaahiti,-17.75,-149.2833,295.08,75,11,1.71,PF,1691256327
16,kirakira,-10.4544,161.9205,297.1,90,100,3.72,SB,1691256317
17,remire-montjoly,4.9167,-52.2667,305.17,66,75,5.14,GF,1691256328
18,ushuaia,-54.8,-68.3,276.96,87,75,2.57,AR,1691256328
19,codrington,-38.2667,141.9667,283.76,73,97,1.84,AU,1691256328
20,kargasok,59.0556,80.8572,287.92,61,0,2.71,RU,1691256328
21,beau vallon,-20.4189,57.6953,296.05,78,75,7.2,MU,1691256173
22,zhezqazghan,47.7833,67.7667,301.94,31,100,5.79,KZ,1691256329
23,ostersund,63.1792,14.6357,289.05,67,75,1.54,SE,1691256329
24,bni bouayach,35.1022,-3.841,305.46,43,0,4.12,MA,1691256329
25,adamstown,-25.066,-130.1015,291.58,57,7,4.28,PN,1691256330
26,warmbad,-28.45,18.7333,294.39,17,1,2.26,NA,1691256082
27,iqaluit,63.7506,-68.5145,283.0,81,20,2.06,CA,1691256330
28,saint-francois,46.4154,3.9054,291.84,59,100,4.12,FR,1691256331
29,tsiombe,-25.3,45.4833,292.84,61,0,7.55,MG,1691256331
30,college,64.8569,-147.8028,292.54,74,40,2.57,US,1691256331
31,utrik,11.2278,169.8474,301.54,67,100,8.59,MH,1691256331
32,thunder bay,48.4001,-89.3168,297.1,46,100,2.57,CA,1691256310
33,lucheng,31.2336,117.2806,302.69,77,66,1.31,CN,1691256332
34,andergrove,-21.0833,149.1833,291.09,84,2,6.47,AU,1691256333
35,ulladulla,-35.35,150.4667,286.12,71,100,4.75,AU,1691256333
36,puerto natales,-51.7236,-72.4875,278.99,83,96,8.64,CL,1691256333
37,isafjordur,66.0755,-23.124,285.17,66,20,2.57,IS,1691256334
38,edinburgh of the seven seas,-37.0676,-12.3116,286.48,78,10,15.31,SH,1691256334
39,ilulissat,69.2167,-51.1,282.16,71,20,2.57,GL,1691256334
40,tolanaro,-25.0319,46.9987,294.19,64,40,6.17,MG,1691256334
41,grytviken,-54.2811,-36.5092,268.7,82,87,5.24,GS,1691256335
42,fort bragg,35.139,-79.006,305.27,59,0,3.6,US,1691256335
43,wenchang,30.904,118.4887,300.37,83,3,1.14,CN,1691256335
44,kalmunai,7.4167,81.8167,300.86,81,73,3.7,LK,1691256335
45,camayenne,9.535,-13.6878,302.2,79,40,5.14,GN,1691256336
46,tiksi,71.6872,128.8694,275.25,83,100,3.91,RU,1691256336
47,invercargill,-46.4,168.35,279.27,89,83,1.79,NZ,1691256336
48,tura,25.5198,90.2201,297.4,98,100,2.72,IN,1691256337
49,talnakh,69.4865,88.3972,288.82,52,7,1.04,RU,1691256050
50,albany,42.6001,-73.9662,299.91,64,9,0.89,US,1691256228
51,vila franca do campo,37.7167,-25.4333,295.38,68,100,3.08,PT,1691256337
52,buy,58.4786,41.53,293.43,75,18,1.94,RU,1691256338
53,polyarnyy,69.1989,33.4478,284.2,94,100,6.97,RU,1691256338
54,inongo,-1.95,18.2667,298.63,53,13,2.26,CD,1691256338
55,knyaze-volkonskoye,48.4642,135.4567,287.34,93,100,2.74,RU,1691256338
56,beira,-19.8436,34.8389,295.2,88,75,3.09,MZ,1691256339
57,aden,12.7794,45.0367,304.46,62,53,4.64,YE,1691256339
58,tralee,52.2704,-9.7026,289.29,77,75,4.63,IE,1691256339
59,bethel,41.3712,-73.414,302.16,59,0,4.12,US,1691256339
60,marka,1.7159,44.7717,297.9,83,81,7.01,SO,1691256340
61,lebu,-37.6167,-73.65,285.91,63,100,1.84,CL,1691256340
62,dudinka,69.4058,86.1778,289.05,57,3,3.38,RU,1691256340
63,papatowai,-46.5619,169.4708,278.54,86,85,3.43,NZ,1691256340
64,coari,-4.085,-63.1414,309.88,30,1,2.27,BR,1691256316
65,constantia,44.1833,28.65,299.65,75,0,5.26,RO,1691256079
66,hermanus,-34.4187,19.2345,285.26,87,98,1.44,ZA,1691256341
67,qinggang,46.6833,126.0833,287.28,89,100,3.64,CN,1691256341
68,borogontsy,62.6683,131.1683,288.42,64,84,0.69,RU,1691256342
69,aasiaat,68.7098,-52.8699,274.94,93,74,2.85,GL,1691256342
70,galliano,29.4422,-90.2992,310.37,52,40,3.09,US,1691256342
71,mount isa,-20.7333,139.5,283.02,76,0,0.0,AU,1691256342
72,blackmans bay,-43.0167,147.3167,281.77,85,85,2.39,AU,1691256343
73,kristiansund,63.1115,7.732,288.18,58,75,4.12,NO,1691256343
74,west island,-12.1568,96.8225,299.14,83,100,5.66,CC,1691256343
75,georgetown,5.4112,100.3354,301.11,92,20,1.03,MY,1691256101
76,kuta,-8.7233,115.1723,299.12,88,75,5.81,ID,1691256344
77,rockland,41.1668,-74.0496,302.29,59,69,2.57,US,1691256344
78,flying fish cove,-10.4217,105.6791,296.97,100,100,6.69,CX,1691256344
79,petropavlovsk-kamchatsky,53.0452,158.6483,285.48,94,75,2.0,RU,1691256345
80,natal,-5.795,-35.2094,302.51,61,40,7.2,BR,1691256061
81,attapeu,14.8,106.8333,296.57,96,100,0.27,LA,1691256345
82,jamestown,42.097,-79.2353,298.72,59,75,1.54,US,1691256151
83,yellowknife,62.456,-114.3525,292.44,48,40,1.54,CA,1691256313
84,port mathurin,-19.6833,63.4167,295.76,76,40,10.87,MU,1691256346
85,serro,-18.6047,-43.3794,302.1,23,39,2.25,BR,1691256346
86,walvis bay,-22.9575,14.5053,288.68,77,1,2.06,NA,1691256346
87,puerto baquerizo moreno,-0.9,-89.6,299.7,78,75,6.69,EC,1691256147
88,sarbogard,46.8869,18.6204,292.2,95,88,6.16,HU,1691256347
89,hammerfest,70.6634,23.6821,285.4,82,75,5.14,NO,1691256347
90,thompson,55.7435,-97.8558,292.24,77,75,4.12,CA,1691256347
91,taulaga,-11.0553,-171.0883,300.75,79,91,6.19,AS,1691256348
92,fada,9.5667,8.3,296.27,91,90,2.0,NG,1691256348
93,cole harbour,44.6724,-63.4751,295.47,92,100,3.58,CA,1691256348
94,aoulef,26.9667,1.0833,320.39,5,0,5.19,DZ,1691256348
95,brookings,44.3114,-96.7984,296.69,95,100,8.75,US,1691256349
96,yuzhno-kurilsk,44.0306,145.8556,285.95,96,100,5.01,RU,1691256349
97,virginia beach,36.8529,-75.978,303.18,79,75,3.6,US,1691256239
98,eyl,7.9803,49.8164,298.83,76,53,12.93,SO,1691256349
99,kapa'a,22.0752,-159.319,300.33,86,75,4.63,US,1691256351
100,tofol,5.3248,163.0078,300.78,75,34,2.29,FM,1691256351
101,avarua,-21.2078,-159.775,295.18,78,20,3.09,CK,1691256142
102,dunedin,-45.8742,170.5036,280.82,72,87,4.02,NZ,1691256107
103,al hufuf,25.3646,49.5653,311.34,28,0,2.57,SA,1691256352
104,caibarien,22.5206,-79.4669,307.77,61,0,4.08,CU,1691256352
105,hawaiian paradise park,19.5933,-154.9731,295.39,90,40,2.57,US,1691256352
106,stanley,54.868,-1.6985,286.55,83,40,5.14,GB,1691256352
107,gaiman,-43.2897,-65.4929,287.26,28,41,7.28,AR,1691256353
108,saint-pierre,-21.3393,55.4781,294.97,78,0,10.29,RE,1691256353
109,skovorodino,53.9833,123.9167,285.96,63,13,1.22,RU,1691256353
110,acarau,-2.8856,-40.12,304.17,55,88,8.44,BR,1691256353
111,praia,14.9215,-23.5087,303.45,58,0,7.72,CV,1691256354
112,la passe,45.5549,-0.8967,293.28,70,85,9.16,FR,1691256354
113,kodiak,57.79,-152.4072,284.88,94,100,0.0,US,1691256354
114,monrovia,6.3005,-10.7969,298.02,81,61,6.19,LR,1691256355
115,jumla,29.2747,82.1838,291.52,99,100,0.63,NP,1691256355
116,vostochnyy,55.8167,37.8667,300.25,56,9,0.87,RU,1691256355
117,turpan,42.9333,89.1667,310.68,16,46,2.54,CN,1691256356
118,ribeira grande,38.5167,-28.7,298.37,69,40,6.69,PT,1691256356
119,alice springs,-23.7,133.8833,283.9,76,0,3.6,AU,1691256356
120,prado,-17.3411,-39.2208,298.11,55,0,3.25,BR,1691256356
121,sheoganj,25.15,73.0667,300.91,74,100,4.29,IN,1691256357
122,parry sound,45.3501,-80.033,296.18,40,36,2.58,CA,1691256357
123,port moresby,-9.4431,147.1797,294.54,85,80,4.26,PG,1691256357
124,chonchi,-42.6128,-73.8092,283.77,73,34,2.03,CL,1691256358
125,gamay,12.3854,125.2979,300.34,78,8,4.31,PH,1691256358
126,nar'yan-mar,67.6713,53.087,295.06,72,89,3.6,RU,1691256358
127,port elizabeth,-33.918,25.5701,294.87,88,0,2.06,ZA,1691256358
128,kailua-kona,19.6406,-155.9956,299.13,82,20,1.54,US,1691256359
129,taltal,-25.4,-70.4833,290.8,68,9,2.8,CL,1691256359
130,boguchany,58.3814,97.4531,284.04,80,100,0.12,RU,1691256359
131,kasongo-lunda,-6.4667,16.8167,302.03,19,21,1.73,CD,1691256359
132,coquimbo,-29.9533,-71.3436,287.0,100,100,4.63,CL,1691256360
133,dogondoutchi,13.6393,4.0287,307.24,44,77,5.92,NE,1691256360
134,pisco,-13.7,-76.2167,294.18,68,20,4.12,PE,1691256271
135,luderitz,-26.6481,15.1594,288.88,66,13,2.8,NA,1691256360
136,st. john's,47.5649,-52.7093,292.9,72,75,6.17,CA,1691256340
137,monte carmelo,-18.7247,-47.4986,303.24,15,8,3.31,BR,1691256361
138,kingston,17.997,-76.7936,307.73,64,20,12.35,JM,1691256087
139,san felipe,10.3399,-68.7425,306.63,42,47,2.34,VE,1691256361
140,lata,40.1629,-8.3327,301.75,42,0,3.76,PT,1691256362
141,quellon,-43.1167,-73.6167,282.29,81,100,2.06,CL,1691256362
142,fale old settlement,-9.3852,-171.2468,300.94,79,26,5.75,TK,1691256362
143,bredasdorp,-34.5322,20.0403,283.68,91,84,1.84,ZA,1691256362
144,flin flon,54.7682,-101.865,295.06,56,75,5.14,CA,1691256363
145,fraserburgh,57.6874,-2.0184,287.83,64,100,2.63,GB,1691256363
146,saldanha,-33.0117,17.9442,286.18,88,93,3.66,ZA,1691256363
147,anadyr,64.75,177.4833,284.43,87,75,9.0,RU,1691256364
148,ayr,55.4627,-4.6339,288.14,82,20,3.6,GB,1691256364
149,susuman,62.7833,148.1667,278.73,76,27,1.1,RU,1691256364
150,taishan,22.2514,112.7799,300.07,87,77,2.42,CN,1691256207
151,ambovombe,-25.1667,46.0833,292.35,63,0,8.14,MG,1691256365
152,san patricio,28.017,-97.5169,309.12,40,20,6.03,US,1691256365
153,salinas,36.6777,-121.6555,296.23,84,100,2.57,US,1691256183
154,garissa,-0.4536,39.6401,301.01,47,93,10.38,KE,1691256365
155,east london,-33.0153,27.9116,291.67,59,0,2.57,ZA,1691256366
156,igrim,63.1906,64.4162,297.61,52,51,2.02,RU,1691256366
157,wajir,1.7471,40.0573,301.06,50,100,8.64,KE,1691256366
158,atafu village,-8.5421,-172.5159,300.88,79,51,4.96,TK,1691256366
159,gobabis,-22.45,18.9667,291.26,23,0,5.05,NA,1691256367
160,bilibino,68.0546,166.4372,277.64,94,100,2.51,RU,1691256367
161,minab,27.1467,57.0801,305.81,66,26,3.02,IR,1691256367
162,tamanrasset,22.785,5.5228,306.1,24,40,3.6,DZ,1691256368
163,pavilosta,56.8879,21.1859,292.1,79,100,1.94,LV,1691256368
164,enewetak,11.3474,162.3373,301.37,78,81,5.82,MH,1691256368
165,puerto ayora,-0.7393,-90.3518,302.13,90,42,4.02,EC,1691256369
166,inari,68.906,27.0288,285.26,94,100,2.39,FI,1691256369
167,akureyri,65.6835,-18.0878,285.11,82,75,4.12,IS,1691256369
168,taounate,34.5,-4.8333,316.48,13,0,1.58,MA,1691256369
169,plymouth,41.8334,-70.8328,303.02,66,75,4.63,US,1691256370
170,ghat,24.9647,10.1728,314.66,7,0,5.09,LY,1691256370
171,jiangyou,31.7667,104.7167,297.71,89,25,1.82,CN,1691256370
172,cimitarra,6.3142,-73.9497,308.07,44,18,1.54,CO,1691256371
173,cuenca,-2.8833,-78.9833,291.22,55,75,5.14,EC,1691256371
174,mil'kovo,55.6078,37.7956,300.37,57,14,0.82,RU,1691256371
175,essaouira,31.5125,-9.77,299.87,69,20,3.09,MA,1691256371
176,prince george,53.9166,-122.753,294.96,56,0,2.06,CA,1691256138
177,weno,7.4515,151.8468,300.12,89,100,3.09,FM,1691256372
178,lent'ekhi,42.7856,42.7261,295.61,85,7,1.86,GE,1691256372
179,aketi,2.7388,23.7833,296.27,93,95,0.96,CD,1691256372
180,tabou,4.423,-7.3528,298.36,80,100,4.61,CI,1691256373
181,cambria,35.5641,-121.0808,299.49,48,0,4.04,US,1691256373
182,chabahar,25.2919,60.643,300.54,83,14,4.62,IR,1691256373
183,hasaki,35.7333,140.8333,300.54,88,0,5.27,JP,1691256373
184,lander,42.833,-108.7307,296.54,49,0,1.54,US,1691256374
185,shenjiamen,29.9576,122.298,299.51,93,35,4.31,CN,1691256374
186,kapuskasing,49.4169,-82.4331,295.15,43,75,1.03,CA,1691256374
187,faya-largeau,17.9257,19.1043,307.97,40,5,4.89,TD,1691256375
188,mucumpiz,8.4167,-71.1333,292.77,72,66,2.63,VE,1691256375
189,praia da vitoria,38.7333,-27.0667,299.29,69,20,3.5,PT,1691256375
190,santa cruz,-17.8,-63.1667,306.18,38,20,6.69,BO,1691256226
191,whitehorse,60.7161,-135.0538,291.58,53,75,6.17,CA,1691256376
192,anna regina,7.2644,-58.5077,303.56,62,59,3.4,GY,1691256376
193,sale,34.0389,-6.8166,307.95,35,1,6.17,MA,1691256376
194,gadzhiyevo,69.2551,33.3362,284.08,93,100,6.98,RU,1691256376
195,haiku-pauwela,20.9219,-156.3051,298.17,72,20,4.63,US,1691256377
196,broken hill,-31.95,141.4333,279.43,75,0,4.81,AU,1691256377
197,chilliwack,49.1747,-121.9443,296.48,70,93,2.68,CA,1691256377
198,badger,64.8,-147.5333,292.49,77,100,2.57,US,1691256378
199,manicore,-5.8092,-61.3003,307.12,55,40,2.06,BR,1691256378
200,geraldton,-28.7667,114.6,282.38,93,90,1.54,AU,1691256378
201,turkestan,43.3333,68.25,303.67,22,31,5.83,KZ,1691256379
202,harper,4.375,-7.7169,298.27,81,100,5.1,LR,1691256379
203,jiuquan,39.7432,98.5174,299.22,28,37,0.66,CN,1691256379
204,ola,59.5833,151.2833,284.5,66,99,2.86,RU,1691256380
205,alofi,-19.0595,-169.9187,296.09,94,98,2.06,NU,1691256380
206,zahedan,29.4963,60.8629,305.1,14,0,2.06,IR,1691256380
207,mabaruma,8.2,-59.7833,306.64,50,99,2.39,GY,1691256381
208,qaqortoq,60.7167,-46.0333,281.46,74,4,3.09,GL,1691256381
209,ust-nera,64.5667,143.2,285.43,57,88,1.36,RU,1691256381
210,iskateley,67.6803,53.1512,295.08,72,89,3.57,RU,1691256381
211,mineros,-17.1167,-63.2333,308.65,18,0,3.95,BO,1691256382
212,qarqaraly,49.4058,75.4742,290.3,80,55,2.94,KZ,1691256382
213,yugorsk,61.3133,63.3319,292.45,89,99,2.22,RU,1691256382
214,phan rang-thap cham,11.5667,108.9833,299.21,75,40,2.76,VN,1691256382
215,kutum,14.2,24.6667,299.72,55,76,4.0,SD,1691256317
216,'ain el turk,35.7438,-0.7693,305.65,51,0,6.17,DZ,1691256383
217,bikenibeu village,1.3673,173.1241,301.13,78,40,3.09,KI,1691256383
218,punta arenas,-53.15,-70.9167,277.55,93,100,11.76,CL,1691256384
219,rio grande,-32.035,-52.0986,292.21,60,0,3.74,BR,1691256384
220,pons,45.5799,-0.5478,293.12,93,75,7.2,FR,1691256384
221,rawson,-43.3002,-65.1023,286.49,34,41,5.99,AR,1691256295
222,palikir - national government center,6.9248,158.1611,297.56,94,100,1.03,FM,1691256385
223,fisterra,42.9049,-9.2629,299.12,85,3,8.43,ES,1691256385
224,altai,46.3722,96.2583,289.11,40,39,1.58,MN,1691256385
225,obuase,6.206,-1.6619,298.52,86,81,1.9,GH,1691256385
226,kuanda,56.3161,116.0806,292.16,54,100,2.41,RU,1691256386
227,aykhal,66.0,111.5,285.23,65,80,8.62,RU,1691256386
228,cidreira,-30.1811,-50.2056,291.8,85,62,3.26,BR,1691256386
229,nikolayevsk-on-amure,53.1406,140.73,284.4,77,85,0.96,RU,1691256254
230,vilhena,-12.7406,-60.1458,307.27,29,40,1.03,BR,1691256387
231,heroica zitacuaro,19.4,-100.3667,293.89,68,80,1.89,MX,1691256387
232,krivyanskaya,47.3963,40.1662,308.67,31,0,5.08,RU,1691256387
233,hanchuan,30.65,113.7667,304.21,73,0,1.61,CN,1691256088
234,lihue,21.9789,-159.3672,299.92,80,75,4.63,US,1691256243
235,bubaque,11.2833,-15.8333,301.07,76,98,2.48,GW,1691256388
236,ulsan,35.5372,129.3167,299.21,85,0,1.17,KR,1691256388
237,mar del plata,-38.0023,-57.5575,286.45,65,75,6.17,AR,1691256388
238,saint-louis du nord,19.9333,-72.7167,303.36,71,9,6.07,HT,1691256389
239,sohbatpur,28.5202,68.5434,312.05,30,5,4.58,PK,1691256389
240,dolinsk,47.35,142.8,286.12,91,98,0.94,RU,1691256389
241,labasa,-16.4167,179.3833,295.44,94,93,2.02,FJ,1691256390
242,novyy urgal,51.0736,132.5642,284.06,73,25,0.8,RU,1691256390
243,zyryanskoye,56.8306,86.6258,284.41,72,0,3.05,RU,1691256390
244,okhotsk,59.3833,143.3,287.69,61,52,2.76,RU,1691256391
245,tobol'sk,58.2,68.2667,290.5,94,98,2.27,RU,1691256391
246,mushie,-3.0167,16.9,305.19,27,2,0.97,CD,1691256391
247,inirida,3.8653,-67.9239,304.13,65,75,0.58,CO,1691256391
248,lengshuijiang,27.6881,111.4294,302.34,73,51,0.41,CN,1691256392
249,payson,40.0444,-111.7321,298.66,45,40,3.6,US,1691256392
250,keflavik,64.0049,-22.5624,287.1,88,75,6.17,IS,1691256392
251,wailua homesteads,22.0669,-159.378,299.59,86,75,4.63,US,1691256392
252,olonkinbyen,70.9221,-8.7187,276.63,93,100,10.4,SJ,1691256393
253,port hedland,-20.3167,118.5667,294.18,40,40,4.63,AU,1691256393
254,broome,42.2506,-75.833,299.65,66,40,1.34,US,1691256393
255,ingeniero jacobacci,-41.3427,-69.5448,282.54,29,90,2.56,AR,1691256394
256,irtyshsk,53.3333,75.4572,293.33,84,100,1.49,KZ,1691256394
257,wanning,18.8003,110.3967,301.34,74,100,6.53,CN,1691256394
258,alekseyevskoye,55.3071,50.1135,297.24,58,60,3.57,RU,1691256394
259,daru,-9.0763,143.2092,296.93,81,79,6.41,PG,1691256395
260,gulf shores,30.246,-87.7008,309.58,63,20,5.14,US,1691256395
261,mahdia,35.5047,11.0622,303.12,40,0,11.28,TN,1691256395
262,vorkuta,67.5,64.0,292.17,53,0,3.29,RU,1691256396
263,longyearbyen,78.2186,15.6401,284.06,87,75,4.63,SJ,1691256396
264,novodzhereliyevskaya,45.7737,38.6723,305.84,26,0,4.42,RU,1691256396
265,buloh kasap,2.5536,102.764,297.94,92,13,1.82,MY,1691256396
266,tazacorte,28.629,-17.9293,297.69,78,20,7.72,ES,1691256397
267,minas de marcona,-15.2119,-75.1103,291.72,53,14,2.65,PE,1691256397
268,al ghayzah,16.2079,52.176,299.91,80,64,4.85,YE,1691256397
269,lodja,-3.4833,23.4333,302.79,30,23,1.1,CD,1691256398
270,dakhla,23.6848,-15.958,298.16,65,0,10.29,EH,1691256398
271,trail,49.0998,-117.7022,302.58,32,94,0.38,CA,1691256398
272,alice town,25.7167,-79.3,302.66,72,53,4.02,BS,1691256398
273,copala,16.65,-98.9833,304.19,57,91,1.79,MX,1691256399
274,muroto-misakicho,33.2833,134.15,300.45,85,7,4.45,JP,1691256399
275,pelabuhanratu,-6.9875,106.5514,297.66,88,32,1.75,ID,1691256399
276,ivdel',60.6911,60.4206,291.6,92,73,1.21,RU,1691256399
277,bengkulu,-3.8004,102.2655,297.68,89,8,2.47,ID,1691256400
278,horta,38.5333,-28.6333,297.95,73,40,6.69,PT,1691256400
279,vadso,70.0744,29.7487,286.24,82,75,1.03,NO,1691256400
280,smara,26.7384,-11.6719,305.01,26,0,8.13,EH,1691256400
281,new norfolk,-42.7826,147.0587,282.43,88,97,1.45,AU,1691256401
282,mitchell,43.7094,-98.0298,299.12,88,75,3.6,US,1691256401
283,margaret river,-33.95,115.0667,281.97,82,100,1.75,AU,1691256402
284,nova sintra,14.8667,-24.7167,295.98,79,15,5.5,CV,1691256402
285,bor,56.3567,44.0669,295.11,64,21,1.66,RU,1691256402
286,red hill,33.9996,-79.2581,304.31,67,89,2.16,US,1691256403
287,yermentau,51.6214,73.1069,292.86,77,95,1.38,KZ,1691256403
288,selfoss,63.9331,-20.9971,288.17,73,94,5.18,IS,1691256403
289,radomsko,51.0671,19.4448,290.22,94,100,5.01,PL,1691256404
290,hobyo,5.3505,48.5268,298.84,80,66,11.34,SO,1691256404
291,tidjikja,18.5564,-11.4271,315.1,8,55,3.37,MR,1691256404
292,undurkhaan,47.3194,110.6556,286.11,94,44,2.25,MN,1691256405
293,khash,28.2211,61.2158,304.65,10,29,3.26,IR,1691256405
294,newcastle,-32.9272,151.7765,289.1,94,40,4.63,AU,1691256371
295,tara,56.8944,74.371,292.42,81,99,3.28,RU,1691256405
296,peniche,39.3558,-9.3811,304.31,55,0,8.68,PT,1691256406
297,northam,51.0333,-4.2167,290.18,79,55,11.58,GB,1691256406
298,weisswasser,51.5167,14.6333,291.01,91,100,2.64,DE,1691256406
299,luzino,54.9481,73.0353,293.02,94,75,2.0,RU,1691256406
300,port said,31.2565,32.2841,302.14,61,0,3.09,EG,1691256407
301,tamiahua,21.2667,-97.45,304.9,58,12,2.75,MX,1691256407
302,champerico,14.3,-91.9167,308.45,62,66,1.72,GT,1691256407
303,bridgewater,44.3835,-64.5155,297.97,84,97,5.14,CA,1691256407
304,limon,10.0,-83.0333,303.18,79,40,1.54,CR,1691256408
305,vernon,50.2581,-119.2691,299.42,34,54,1.03,CA,1691256408
306,vilyuchinsk,52.9306,158.4028,286.3,86,0,3.63,RU,1691256408
307,same,-4.0667,37.7333,293.78,73,99,1.37,TZ,1691256409
308,serenje,-13.2325,30.2352,288.29,48,3,2.55,ZM,1691256409
309,peruibe,-24.32,-46.9983,299.27,50,0,2.35,BR,1691256309
310,as sulayyil,20.4607,45.5779,313.29,9,99,1.47,SA,1691256410
311,eydhafushi,5.1033,73.0708,301.12,78,91,4.58,MV,1691256148
312,cedeira,43.6797,-8.0209,293.86,85,81,3.76,ES,1691256410
313,nantucket,41.2835,-70.0995,300.23,68,75,5.66,US,1691256411
314,chinde,26.8418,88.0763,292.14,90,100,1.64,NP,1691256411
315,morococha,-11.5997,-76.1411,279.18,51,30,3.16,PE,1691256412
316,campos,-21.75,-41.3,300.18,61,0,5.66,BR,1691256412
317,jutai,-5.1833,-68.9,309.64,34,6,1.36,BR,1691256412
318,grand island,40.925,-98.342,301.12,64,0,2.57,US,1691256412
319,bata,1.8639,9.7658,297.87,79,99,5.72,GQ,1691256413
320,leava,-14.3,-178.1667,300.08,80,78,5.22,WF,1691256413
321,kerrville,30.0474,-99.1403,309.36,44,0,6.17,US,1691256309
322,barentu,15.1139,37.5928,298.05,69,96,4.13,ER,1691256413
323,nuku'alofa,-21.1333,-175.2,291.34,94,100,6.17,TO,1691256414
324,camapua,-19.5314,-54.0439,307.53,16,0,1.89,BR,1691256414
325,mthatha,-31.5889,28.7844,288.46,41,0,1.03,ZA,1691256414
326,pahrump,36.2083,-115.9839,308.85,9,0,1.34,US,1691256414
327,singkil,-7.9855,111.4161,295.29,92,5,1.79,ID,1691256415
328,kargat,55.1956,80.2811,291.62,56,84,3.98,RU,1691256415
329,uturoa,-16.7333,-151.4333,298.92,72,22,3.46,PF,1691256415
330,cold lake,54.4502,-110.2017,291.12,82,40,2.06,CA,1691256415
331,kiama,-34.6833,150.8667,286.69,84,100,1.34,AU,1691256416
332,nema,57.5067,50.5011,295.69,62,45,3.46,RU,1691256416
333,keminmaa,65.8596,24.8228,291.02,68,0,3.09,FI,1691256416
334,challapata,-18.9,-66.7667,285.64,14,0,3.47,BO,1691256416
335,dadukou,26.5479,101.7054,296.52,93,100,0.37,CN,1691256417
336,baiyin,36.5583,104.2081,298.27,37,25,1.92,CN,1691256417
337,grootfontein,-19.5667,18.1167,292.91,26,0,1.54,NA,1691256417
338,dankama,13.2978,7.7949,308.78,49,100,7.44,NG,1691256418
339,oodweyne,9.4092,45.064,301.18,36,92,9.09,SO,1691256418
340,neiva,2.9273,-75.2819,306.09,35,40,4.12,CO,1691256418
341,pariaman,-0.619,100.12,297.18,87,14,1.4,ID,1691256418
342,greenville,35.6127,-77.3663,302.24,72,83,0.89,US,1691256419
343,svilengrad,41.7667,26.2,308.23,27,0,7.13,BG,1691256419
344,abepura,-2.6333,140.5833,296.6,88,20,1.03,ID,1691256419
345,dubbo,-32.25,148.6167,280.22,93,40,4.12,AU,1691256302
346,vuktyl,63.8567,57.3094,292.9,87,90,3.57,RU,1691256420
347,paracuru,-3.41,-39.0306,300.99,53,87,7.42,BR,1691256420
348,port alfred,-33.5906,26.891,293.49,55,0,3.77,ZA,1691256420
349,borkum,53.5809,6.6915,289.79,90,100,6.57,DE,1691256420
350,road town,18.4167,-64.6167,306.2,58,40,6.17,VG,1691256421
351,la ronge,55.1001,-105.2842,295.29,56,40,5.14,CA,1691256421
352,lerwick,60.1545,-1.1494,286.15,69,98,0.79,GB,1691256421
353,kotlas,61.2611,46.6556,291.69,88,41,2.17,RU,1691256421
354,sibay,52.7181,58.6658,293.83,66,68,2.4,RU,1691256370
355,celestun,20.8667,-90.4,304.99,57,12,1.65,MX,1691256422
356,santa terezinha,-29.9002,-50.0904,291.87,85,81,2.33,BR,1691256422
357,hadibu,12.65,54.0333,299.3,76,33,7.75,YE,1691256422
358,yenangyaung,20.4667,94.8833,300.43,73,100,5.92,MM,1691256190
359,vorgashor,67.5833,63.95,291.99,54,0,3.29,RU,1691256423
360,anshan,41.1236,122.99,289.65,87,1,3.16,CN,1691256423
361,lisala,2.15,21.5167,298.96,71,60,1.29,CD,1691256424
362,egilsstadir,65.2653,-14.3948,287.1,47,40,6.17,IS,1691256424
363,prince rupert,54.3161,-130.3201,292.2,78,100,1.54,CA,1691256424
364,likhoslavl',57.1275,35.464,295.19,71,48,1.04,RU,1691256425
365,margate,51.3813,1.3862,290.86,91,95,0.89,GB,1691256425
366,dalnegorsk,44.5604,135.5701,286.72,98,100,0.7,RU,1691256425
367,tazovsky,67.4667,78.7,288.35,65,8,2.31,RU,1691256252
368,eirunepe,-6.6603,-69.8736,309.79,33,6,1.05,BR,1691256426
369,carnarvon,-24.8667,113.6333,292.0,81,0,4.02,AU,1691256426
370,tweed heads,-28.1817,153.547,288.13,95,75,0.0,AU,1691256427
371,acapulco de juarez,16.8634,-99.8901,304.05,58,20,1.54,MX,1691256226
372,port-vila,-17.7338,168.3219,293.93,100,75,1.54,VU,1691256427
373,puerto lempira,15.2667,-83.7667,304.23,66,40,1.54,HN,1691256428
374,pierre,44.3683,-100.351,294.66,83,100,4.12,US,1691256428
375,nsanje,-16.92,35.262,296.65,58,88,3.35,MW,1691256429
376,williston,48.147,-103.618,299.71,58,98,2.68,US,1691256429
377,hithadhoo,-0.6,73.0833,300.95,72,100,1.48,MV,1691256429
378,sassandra,4.95,-6.0833,298.68,80,81,3.7,CI,1691256429
379,franklin,39.9667,-83.0166,302.07,54,100,3.09,US,1691256430
380,omdurman,15.6445,32.4777,309.2,32,60,7.21,SD,1691256430
381,inyonga,-6.7167,32.0667,296.07,32,21,1.79,TZ,1691256430
382,crane,31.3974,-102.3501,307.32,28,1,8.82,US,1691256431
383,port blair,11.6667,92.75,301.17,83,40,4.12,IN,1691256431
384,yavoriv,49.9386,23.3825,299.33,65,48,3.48,UA,1691256431
385,beledweyne,4.7358,45.2036,301.72,52,68,10.57,SO,1691256432
386,sinop,41.7711,34.8709,295.91,69,0,2.56,TR,1691256433
387,alexandria,31.2156,29.9553,306.45,51,0,4.22,EG,1691256307
388,wakkanai,45.4094,141.6739,288.2,94,100,4.02,JP,1691256434
389,island harbour,50.724,-1.2758,289.92,85,70,4.47,GB,1691256435
390,merizo village,13.2658,144.6691,300.36,94,100,1.11,GU,1691256435
391,shantobe,52.4581,68.1839,294.49,59,65,1.96,KZ,1691256435
392,aioun,16.6614,-9.6149,313.16,24,100,4.69,MR,1691256436
393,yanam,16.7333,82.2167,300.64,79,18,1.77,IN,1691256436
394,bemidji,47.4736,-94.8803,299.85,65,0,3.09,US,1691256436
395,yulinshi,38.2906,109.7494,299.16,46,5,4.39,CN,1691256437
396,arno,60.1167,18.6333,290.81,71,69,4.26,SE,1691256437
397,saint-philippe,-21.3585,55.7679,294.92,83,83,8.27,RE,1691256437
398,ancud,-41.8697,-73.8203,282.07,68,34,1.01,CL,1691256438
399,kalabo,-14.97,22.6814,293.04,22,0,2.6,ZM,1691256438
400,fort mcmurray,56.7268,-111.381,292.92,68,0,3.09,CA,1691256438
401,san juan bautista,-14.0108,-75.7358,297.73,39,0,2.27,PE,1691256439
402,sarai,53.7458,41.0213,297.06,61,0,2.67,RU,1691256439
403,kill devil hills,36.0307,-75.676,299.81,79,40,3.09,US,1691256439
404,karratha,-20.7377,116.8463,296.46,46,5,3.52,AU,1691256439
405,dwarka,22.2394,68.9678,300.76,83,100,8.19,IN,1691256440
406,general pinedo,-27.3167,-61.2833,303.61,23,0,7.67,AR,1691256440
407,pacific grove,36.6177,-121.9166,291.6,95,100,2.68,US,1691256441
408,laojunmiao,39.8333,97.7333,296.3,31,30,2.95,CN,1691256441
409,puerto armuelles,8.2833,-82.8667,306.14,70,50,1.34,PA,1691256441
410,cabo san lucas,22.8909,-109.9124,306.76,74,75,3.09,MX,1691256363
411,saipan,15.1355,145.701,300.73,100,0,0.45,MP,1691256442
412,badou,7.5833,0.6,299.32,82,100,1.64,TG,1691256442
413,gaspe,48.8334,-64.4819,289.27,100,100,2.57,CA,1691256443
414,kittila,67.6647,24.8936,289.23,72,0,1.03,FI,1691256443
415,estevan,49.1334,-102.9842,298.26,47,75,5.14,CA,1691256443
416,bocana de paiwas,12.7857,-85.1227,301.61,76,46,5.71,NI,1691256443
417,sao joao dos patos,-6.495,-43.7022,309.02,20,18,2.98,BR,1691256444
418,magistral'nyy,56.1725,107.4458,288.65,99,100,0.78,RU,1691256444
419,ramadi,33.4226,43.3058,312.35,13,0,4.22,IQ,1691256444
420,galveston,29.3669,-94.9669,310.95,62,20,6.17,US,1691256445
421,torghay,49.6339,63.4981,297.08,60,75,3.62,KZ,1691256445
422,conception bay south,47.4999,-52.9981,292.77,73,73,3.69,CA,1691256395
423,colesberg,-30.72,25.0972,287.74,29,0,2.75,ZA,1691256445
424,lautoka,-17.6167,177.4667,293.07,100,100,1.54,FJ,1691256446
425,mandera,3.9366,41.867,303.19,43,100,5.85,KE,1691256446
426,shirgaon,19.7,72.7,300.52,80,66,7.39,IN,1691256446
427,mombetsu,44.3525,143.3525,288.47,98,100,2.32,JP,1691256447
428,indre arna,60.4247,5.4764,289.75,73,96,2.25,NO,1691256447
429,den burg,53.0542,4.7972,289.8,71,75,5.14,NL,1691256448
430,nova olinda do norte,-3.8881,-59.0942,312.43,21,0,1.9,BR,1691256448
431,atyrau,47.1167,51.8833,304.16,35,0,4.0,KZ,1691256448
432,el fasher,13.6279,25.3494,304.33,43,81,5.73,SD,1691256448
433,cidade velha,14.9167,-23.6167,303.41,58,0,7.72,CV,1691256449
434,san antonio de pale,-1.4014,5.6325,296.0,79,97,5.32,GQ,1691256449
435,udachny,66.4167,112.4,284.51,71,100,6.27,RU,1691256450
436,yamada,39.4667,141.95,297.42,89,16,1.95,JP,1691256450
437,bardai,11.65,7.2333,298.6,78,95,3.87,NG,1691256450
438,jayapura,-2.5333,140.7,296.81,89,90,2.28,ID,1691256451
439,thinadhoo,0.5333,72.9333,301.26,73,94,3.95,MV,1691256451
440,olovyannaya,50.95,115.5667,289.35,56,100,2.25,RU,1691256451
441,bandipura,34.4167,74.65,293.61,86,30,1.68,IN,1691256452
442,mount gambier,-37.8333,140.7667,280.95,87,95,1.04,AU,1691256452
443,mugia,43.1041,-9.2179,299.21,85,16,6.41,ES,1691256453
444,doma,8.3833,8.35,301.44,73,89,3.18,NG,1691256453
445,kstovo,56.1473,44.1979,294.81,66,41,1.46,RU,1691256453
446,arteche,12.2645,125.4048,300.09,78,8,3.39,PH,1691256454
447,oranjemund,-28.55,16.4333,287.28,71,48,2.0,NA,1691256454
448,jauja,-11.7758,-75.4966,289.27,32,20,2.2,PE,1691256455
449,yangjiang,21.85,111.9667,300.28,85,44,1.51,CN,1691256455
450,cruzeiro do sul,-29.5128,-51.9853,295.42,81,99,0.75,BR,1691256456
451,saint-jean-de-maurienne,45.1667,6.5833,283.03,65,29,4.58,FR,1691256456
452,anaconda,46.1285,-112.9423,286.7,66,100,2.31,US,1691256241
453,ouesso,1.6136,16.0517,299.12,71,96,0.93,CG,1691256456
454,uzgen,40.7699,73.3007,298.31,25,23,2.6,KG,1691256457
455,port saint john's,-31.6229,29.5448,292.83,61,0,5.08,ZA,1691256457
456,kristinestad,62.2743,21.376,292.09,69,4,2.97,FI,1691256457
457,urangan,-25.3,152.9,291.02,71,3,4.42,AU,1691256458
458,rawatbhata,24.9333,75.5833,299.95,79,100,5.98,IN,1691256458
459,portland,45.5234,-122.6762,295.84,77,100,1.54,US,1691256247
460,lexington,37.9887,-84.4777,304.45,57,20,4.63,US,1691256454
461,havsa,41.549,26.8221,304.12,42,0,6.94,TR,1691256459
462,ilinge,-31.9768,27.0427,287.37,26,0,0.81,ZA,1691256459
463,okha,53.5739,142.9478,284.07,85,12,2.26,RU,1691256459
464,lethem,3.3803,-59.7968,306.41,50,15,1.46,GY,1691256460
465,mitu,1.1983,-70.1733,304.38,54,100,1.35,CO,1691256460
466,ambikapur,23.1167,83.2,296.53,94,100,2.44,IN,1691256460
467,al jawf,29.5,38.75,306.7,9,0,4.58,SA,1691256461
468,progreso,21.2833,-89.6667,306.54,60,11,4.08,MX,1691256461
469,pathein,16.7833,94.7333,299.24,90,91,2.93,MM,1691256461
470,mosjoen,65.836,13.1908,287.44,67,100,1.54,NO,1691256461
471,ninomiya,35.3033,139.2533,300.51,72,0,2.95,JP,1691256462
472,bamboo flat,11.7,92.7167,301.2,83,40,4.12,IN,1691256462
473,guerrero negro,27.9769,-114.0611,297.23,58,31,3.22,MX,1691256462
474,klyuchi,52.2667,79.1667,293.54,71,90,1.04,RU,1691256463
475,obock,12.25,43.0833,303.17,47,37,9.88,DJ,1691256463
476,villa gesell,-37.2639,-56.973,287.62,55,66,3.84,AR,1691256463
477,rauma,61.1272,21.5113,293.17,77,62,4.59,FI,1691256464
478,boende,-0.2167,20.8667,301.4,55,86,0.35,CD,1691256464
479,iskushuban,10.2837,50.23,307.72,28,82,10.8,SO,1691256464
480,farmington,36.7281,-108.2187,305.48,17,0,0.0,US,1691256464
481,patulul,14.4167,-91.1667,305.45,53,64,2.23,GT,1691256465
482,tarawa,1.419,172.984,301.2,78,40,3.09,KI,1691256465
483,teguise,29.0605,-13.564,297.27,57,20,9.26,ES,1691256465
484,siracusa,37.0881,15.2792,303.8,56,1,3.21,IT,1691256264
485,dhidhdhoo,6.8833,73.1,301.55,77,100,5.97,MV,1691256466
486,harlan,41.653,-95.3255,301.29,69,83,3.34,US,1691256466
487,lorengau,-2.0226,147.2712,300.45,78,77,5.47,PG,1691256467
488,harstad,68.799,16.5293,287.12,76,62,9.83,NO,1691256467
489,inhambane,-23.865,35.3833,292.41,72,20,3.93,MZ,1691256467
490,zaysan,47.4667,84.8667,295.4,41,16,2.31,KZ,1691256468
491,grand falls-windsor,48.9332,-55.6649,298.43,43,85,2.24,CA,1691256468
492,swinoujscie,53.9105,14.2471,291.56,63,0,3.6,PL,1691256468
493,floridsdorf,48.25,16.4,291.61,91,75,6.69,AT,1691256469
494,cururupu,-1.8283,-44.8683,304.32,55,36,3.53,BR,1691256469
495,salekhard,66.53,66.6019,293.74,56,0,3.83,RU,1691256469
496,erenhot,43.6475,111.9767,297.78,43,21,6.47,CN,1691256469
497,luganville,-15.5333,167.1667,295.97,88,92,1.71,VU,1691256470
498,constitucion,-35.3333,-72.4167,286.62,78,100,3.98,CL,1691256471
499,cooper's town,26.8667,-77.5167,302.55,73,14,6.06,BS,1691256472
500,fort irwin,35.2627,-116.6848,303.89,16,0,1.54,US,1691256472
501,kotido,2.9806,34.1331,298.01,49,100,2.92,UG,1691256472
502,touros,-5.1989,-35.4608,301.65,62,95,7.23,BR,1691256410
503,kabinda,-6.1333,24.4833,299.73,29,33,1.25,CD,1691256473
504,east ballina,-28.8667,153.5833,283.59,86,52,1.45,AU,1691256473
505,sakakah,29.9697,40.2064,308.91,11,0,3.99,SA,1691256473
506,ajdabiya,30.7554,20.2263,306.5,29,0,2.68,LY,1691256474
507,ciudad lazaro cardenas,17.9583,-102.2,302.87,64,100,1.74,MX,1691256474
508,lago da pedra,-4.3333,-45.1667,310.15,29,64,2.12,BR,1691256242
509,mahina,-17.5065,-149.489,296.02,83,20,2.57,PF,1691256475
510,joshimath,30.5667,79.5667,296.06,98,100,1.12,IN,1691256475
511,sitka,57.0531,-135.33,292.09,72,40,2.57,US,1691256475
512,chongwe,-15.3292,28.682,291.47,60,22,2.67,ZM,1691256476
513,preobrazheniye,42.9019,133.9064,289.5,91,100,6.68,RU,1691256476
514,xiantao,30.3833,113.4,302.16,72,0,1.79,CN,1691256476
515,posto fiscal rolim de moura,-13.0833,-62.2667,311.44,18,6,1.27,BR,1691256476
516,west bay,19.3667,-81.4167,306.19,72,20,3.09,KY,1691256477
517,papao,-17.75,-149.55,295.97,77,45,1.26,PF,1691256477
518,laguna,38.421,-121.4238,304.86,56,0,2.57,US,1691256477
519,colonia,50.9333,6.95,291.46,85,20,1.54,DE,1691256478
520,mana,5.6592,-53.7767,303.91,62,17,4.03,GF,1691256478
521,likiep,9.8251,169.3107,301.48,72,98,8.34,MH,1691256478
522,al kharj,24.155,47.3346,312.47,6,54,4.65,SA,1691256479
523,araguari,-18.6472,-48.1872,302.31,14,18,3.01,BR,1691256479
524,paracale,14.2804,122.7881,299.95,81,62,5.2,PH,1691256479
525,barra de santo antonio,-9.4047,-35.5072,300.75,74,44,4.06,BR,1691256480
526,svetlyy,54.675,20.1347,292.18,90,100,2.43,RU,1691256480
527,emkhomazi,-30.2067,30.7978,291.27,87,26,5.26,ZA,1691256480
528,chemolgan,43.1897,76.5292,297.96,24,82,3.02,KZ,1691256481
529,tanjungtiram,4.0613,98.3699,298.53,91,95,1.68,ID,1691256481
530,cannonvale,-20.2833,148.7,292.81,84,4,6.98,AU,1691256481
531,maceio,-9.6658,-35.7353,300.84,69,75,5.14,BR,1691256224
532,kavieng,-2.5744,150.7967,300.1,80,50,5.22,PG,1691256482
533,domanivka,47.6319,30.9885,304.85,31,0,3.34,UA,1691256482
534,smithers,54.7804,-127.1743,293.33,49,40,1.03,CA,1691256482
535,rzhev,56.2624,34.3282,295.54,75,28,2.57,RU,1691256483
536,luena,-11.7833,19.9167,291.82,27,0,2.13,AO,1691256483
537,basco,20.4487,121.9702,301.28,88,100,14.16,PH,1691256484
538,zouerate,22.7187,-12.4521,311.56,11,0,6.64,MR,1691256484
539,kulim,5.365,100.5618,300.89,92,76,1.4,MY,1691256485
540,berdigestyakh,62.0989,126.6992,288.07,59,56,0.82,RU,1691256485
541,les cayes,18.2,-73.75,304.43,66,48,5.84,HT,1691256485
542,nanao,37.05,136.9667,300.55,93,7,1.27,JP,1691256485
543,garachico,28.7781,-17.7646,296.21,69,20,7.72,ES,1691256486
544,zeya,53.75,127.2667,287.31,53,34,1.6,RU,1691256486
545,lompoc,34.6391,-120.4579,300.84,86,100,8.05,US,1691256487
546,belyayevka,51.3974,56.4096,298.7,44,54,2.52,RU,1691256487
547,cockburn town,21.4612,-71.1419,304.13,66,40,4.12,TC,1691256487
548,parras de la fuente,25.4167,-102.1833,301.02,27,2,1.91,MX,1691256488
549,hulan ergi,47.2042,123.6333,285.58,89,43,4.0,CN,1691256488
550,madinat ash shamal,26.1293,51.2009,307.41,61,22,4.05,QA,1691256307
551,angaur state,6.906,134.13,300.77,75,100,4.79,PW,1691256488
552,bay harbor,30.1471,-85.6146,305.92,82,75,4.63,US,1691256489
553,lanzhou,36.0564,103.7922,299.9,40,92,2.29,CN,1691256490
554,yekaterinovka,52.0508,44.3451,297.26,64,0,2.72,RU,1691256490
555,la gi,10.6667,107.7833,299.31,86,45,3.77,VN,1691256490
556,zhaogezhuang,39.7667,118.4,295.6,76,0,2.9,CN,1691256491
557,przeworsk,50.0591,22.4941,296.44,80,59,2.25,PL,1691256491
558,korla,41.7597,86.1469,304.54,18,25,1.98,CN,1691256491
559,razole,16.4833,81.8333,300.87,75,17,1.97,IN,1691256492
560,princeville,45.7668,-61.2985,294.65,85,75,7.72,CA,1691256492
561,irece,-11.3042,-41.8558,302.96,15,1,4.19,BR,1691256493
562,chernyshevsk,52.5243,117.0174,289.62,44,99,1.52,RU,1691256493
563,rikaze,29.25,88.8833,286.44,72,100,0.9,CN,1691256494
564,chitose,42.8194,141.6522,295.98,94,75,5.66,JP,1691256494
565,beidao,34.5686,105.8933,295.66,85,41,0.29,CN,1691256494
566,buala,-8.145,159.5921,297.7,96,100,1.51,SB,1691256495
567,baker city,44.7749,-117.8344,294.04,61,40,0.0,US,1691256495
568,belmonte,-15.8631,-38.8828,298.75,52,0,2.92,BR,1691256411
569,mangrol,21.1167,70.1167,300.21,86,83,7.33,IN,1691256496
570,kamyzyak,46.11,48.0736,303.16,45,0,2.0,RU,1691256496
571,nuuk,64.1835,-51.7216,282.49,87,75,2.57,GL,1691256496
572,sodankyla,67.4167,26.6,285.28,81,99,3.54,FI,1691256497
573,lendava,46.5649,16.4509,290.86,77,100,2.79,SI,1691256497
574,kupang,-10.1667,123.5833,297.39,75,70,5.46,ID,1691256497
575,taoudenni,22.6783,-3.9836,322.04,5,3,4.72,ML,1691256498
576,zheleznodorozhnyy,55.7503,38.0042,300.38,57,12,1.31,RU,1691256498
577,richards bay,-28.783,32.0377,292.51,73,79,5.16,ZA,1691256498
578,namie,37.4833,141.0,300.21,83,0,2.22,JP,1691256499
579,tommot,58.9564,126.2925,285.82,81,78,0.74,RU,1691256499
580,burang,30.25,81.1667,286.84,74,99,2.78,CN,1691256499
581,dera bugti,29.0307,69.151,308.58,38,4,5.13,PK,1691256500
582,magadan,59.5667,150.8,284.64,63,100,3.08,RU,1691256500
583,ambositra,-20.5167,47.25,284.36,97,100,1.82,MG,1691256500
584,luanda,-8.8368,13.2343,296.15,78,20,5.14,AO,1691256501
585,greymouth,-42.4667,171.2,282.08,93,100,0.95,NZ,1691256501
586,ciudad bolivar,8.1222,-63.5497,307.91,43,13,3.56,VE,1691256227
587,al artawiyah,26.5053,45.3444,309.48,10,23,3.46,SA,1691256502
588,south hedland,-20.4089,118.5983,294.11,40,40,4.63,AU,1691256502
589,xiaoweizhai,26.1903,107.5125,295.88,96,100,1.29,CN,1691256502
