City_ID,City,Lat,Lng,Max Temp,Humidity,Cloudiness,Wind Speed,Country,Date
0,inirida,3.8653,-67.9239,23.1,98,100,1.43,CO,1691292075
1,iqaluit,63.7506,-68.5145,8.85,81,20,1.54,CA,1691291921
2,jamestown,42.097,-79.2353,18.8,88,40,3.09,US,1691291819
3,invercargill,-46.4,168.35,10.57,84,94,6.71,NZ,1691292076
4,grytviken,-54.2811,-36.5092,-6.08,81,100,4.69,GS,1691292076
5,waitangi,-43.9535,-176.5597,8.79,77,74,3.13,NZ,1691292076
6,puerto natales,-51.7236,-72.4875,-0.01,89,100,8.83,CL,1691292076
7,hammerfest,70.6634,23.6821,10.25,87,75,0.0,NO,1691292077
8,wailua homesteads,22.0669,-159.378,28.44,72,0,6.17,US,1691292077
9,alofi,-19.0595,-169.9187,23.94,94,84,4.12,NU,1691292077
10,saipan,15.1355,145.701,31.39,100,40,4.12,MP,1691292077
11,edinburgh of the seven seas,-37.0676,-12.3116,13.59,83,99,18.65,SH,1691292077
12,port-aux-francais,-49.35,70.2167,2.84,73,82,11.34,TF,1691292078
13,lihue,21.9789,-159.3672,28.77,65,0,6.17,US,1691292078
14,akrehamn,59.2667,5.1833,13.33,76,100,5.66,NO,1691292078
15,luena,-11.7833,19.9167,9.56,52,0,2.26,AO,1691292078
16,college,64.8569,-147.8028,29.21,38,40,0.0,US,1691292079
17,fale old settlement,-9.3852,-171.2468,28.42,75,9,4.59,TK,1691292079
18,bethel,41.3712,-73.414,22.58,82,0,2.06,US,1691292042
19,yellowknife,62.456,-114.3525,20.31,59,75,2.06,CA,1691292079
20,opuwo,-18.0607,13.84,14.35,33,0,3.32,NA,1691292079
21,anadyr,64.75,177.4833,12.28,81,75,9.83,RU,1691292080
22,albany,42.6001,-73.9662,18.92,83,100,2.02,US,1691291824
23,colonia,50.9333,6.95,15.88,86,75,3.09,DE,1691291880
24,tuburan,6.6439,122.2736,30.05,70,54,1.75,PH,1691292080
25,tolanaro,-25.0319,46.9987,19.04,82,40,7.2,MG,1691292080
26,polyarnyy,69.1989,33.4478,10.72,95,100,6.07,RU,1691292081
27,whitehorse,60.7161,-135.0538,25.43,33,75,5.81,CA,1691291824
28,happy valley-goose bay,53.3168,-60.3315,16.17,82,100,3.09,CA,1691292082
29,lebu,-37.6167,-73.65,9.68,92,92,2.33,CL,1691292082
30,jayapura,-2.5333,140.7,31.66,72,67,2.43,ID,1691292082
31,ilulissat,69.2167,-51.1,5.01,75,6,0.0,GL,1691292082
32,ancud,-41.8697,-73.8203,5.91,88,98,1.52,CL,1691291913
33,hithadhoo,-0.6,73.0833,28.42,70,100,3.72,MV,1691292083
34,praia da vitoria,38.7333,-27.0667,22.14,83,40,0.46,PT,1691292083
35,ribeira grande,38.5167,-28.7,22.1,82,100,1.79,PT,1691292083
36,birao,10.2849,22.7882,21.53,95,67,1.81,CF,1691292083
37,remire-montjoly,4.9167,-52.2667,27.02,89,40,0.51,GF,1691292084
38,adamstown,-25.066,-130.1015,20.82,73,58,8.52,PN,1691292084
39,island harbour,50.724,-1.2758,11.67,89,19,0.89,GB,1691292084
40,yenakiyeve,48.2333,38.2114,24.75,49,0,4.63,UA,1691292084
41,portel,-1.9356,-50.8211,25.19,73,7,1.81,BR,1691292085
42,cabo san lucas,22.8909,-109.9124,29.78,78,20,4.12,MX,1691292028
43,mizdah,31.4451,12.9801,19.79,69,0,2.12,LY,1691292085
44,ha'il,27.5219,41.6907,24.01,25,0,1.03,SA,1691292085
45,tsiombe,-25.3,45.4833,17.3,76,0,5.03,MG,1691292086
46,tabas,33.5959,56.9244,32.12,22,0,2.06,IR,1691292086
47,tiksi,71.6872,128.8694,2.96,72,100,2.37,RU,1691292086
48,hawaiian paradise park,19.5933,-154.9731,24.85,87,100,3.6,US,1691292086
49,olonkinbyen,70.9221,-8.7187,3.46,97,100,9.73,SJ,1691292086
50,longyearbyen,78.2186,15.6401,9.91,93,75,7.72,SJ,1691292024
51,blackmans bay,-43.0167,147.3167,13.74,65,95,0.82,AU,1691292087
52,okhotsk,59.3833,143.3,18.7,55,8,3.79,RU,1691292087
53,santana,-0.0583,-51.1817,29.1,89,40,3.09,BR,1691291825
54,afaahiti,-17.75,-149.2833,26.7,75,46,0.53,PF,1691292088
55,ta`u,-14.2336,-169.5144,27.2,80,52,4.16,AS,1691292088
56,puerto ayora,-0.7393,-90.3518,24.19,91,78,5.36,EC,1691292088
57,koratla,18.8167,78.7167,25.77,83,59,6.47,IN,1691292088
58,buenaventura,3.8801,-77.0312,25.78,93,88,0.99,CO,1691292088
59,papatowai,-46.5619,169.4708,9.36,88,98,3.64,NZ,1691292089
60,katabu,-4.9333,122.5167,29.4,53,46,4.6,ID,1691292089
61,sao gabriel da cachoeira,-0.1303,-67.0892,25.34,79,75,0.86,BR,1691292089
62,tobol'sk,58.2,68.2667,19.86,86,100,3.06,RU,1691291859
63,leava,-14.3,-178.1667,27.64,75,87,2.7,WF,1691292090
64,nuuk,64.1835,-51.7216,8.82,87,3,3.09,GL,1691291996
65,ivdel',60.6911,60.4206,18.89,93,44,1.03,RU,1691292090
66,port lincoln,-34.7333,135.8667,13.12,60,62,3.71,AU,1691291914
67,sao joao da barra,-21.6403,-41.0511,21.55,89,0,3.99,BR,1691291846
68,luwuk,-0.9516,122.7875,28.96,68,89,3.91,ID,1691292091
69,fortuna,40.5982,-124.1573,17.74,94,100,4.63,US,1691292091
70,labrador city,52.9463,-66.9114,12.95,94,100,1.54,CA,1691292091
71,constantia,44.1833,28.65,23.38,91,0,4.15,RO,1691292091
72,susaki,33.3667,133.2833,31.04,87,80,4.54,JP,1691292091
73,ondjiva,-17.0667,15.7333,15.02,31,0,4.12,AO,1691292092
74,kirakira,-10.4544,161.9205,26.24,81,100,1.2,SB,1691292092
75,northam,51.0333,-4.2167,14.25,88,5,5.06,GB,1691292092
76,ceeldheer,3.8488,47.1806,23.54,84,80,7.29,SO,1691292092
77,utrik,11.2278,169.8474,28.54,73,74,6.91,MH,1691292093
78,la passe,45.5549,-0.8967,15.55,80,7,5.29,FR,1691292093
79,laguna,38.421,-121.4238,34.13,42,0,3.6,US,1691292093
80,kerouane,9.2667,-9.0167,20.49,98,78,1.8,GN,1691292093
81,labytnangi,66.6572,66.4183,21.98,51,0,2.6,RU,1691292093
82,tralee,52.2704,-9.7026,13.01,92,77,3.36,IE,1691292094
83,limulunga,-15.0969,23.1376,11.7,55,0,3.27,ZM,1691292094
84,ternate,0.8,127.4,28.61,73,40,4.3,ID,1691292094
85,el calafate,-50.3408,-72.2768,2.54,91,29,6.68,AR,1691292094
86,ushuaia,-54.8,-68.3,-1.19,80,75,8.75,AR,1691291823
87,lamu,-2.2717,40.902,23.12,85,70,7.08,KE,1691292095
88,paita,-5.0892,-81.1144,21.01,82,6,6.72,PE,1691292095
89,yuzhno-kurilsk,44.0306,145.8556,13.71,96,100,4.24,RU,1691292095
90,kapuskasing,49.4169,-82.4331,16.0,82,0,1.03,CA,1691292095
91,susuman,62.7833,148.1667,16.9,40,48,5.36,RU,1691292095
92,kavaratti,10.5669,72.642,28.21,75,80,7.94,IN,1691292096
93,ravar,31.2656,56.8055,28.7,20,2,0.83,IR,1691292096
94,khovd,48.0056,91.6419,22.95,30,0,0.79,MN,1691292096
95,usogorsk,63.4106,48.6872,16.69,92,39,2.63,RU,1691292096
96,geraldton,-28.7667,114.6,21.23,73,1,2.57,AU,1691292097
97,guerrero negro,27.9769,-114.0611,21.13,77,5,5.35,MX,1691292097
98,bel ombre,-4.6167,55.4167,25.91,78,20,7.2,SC,1691292097
99,dalandzadgad,43.5708,104.425,29.62,14,0,5.71,MN,1691292097
100,papao,-17.75,-149.55,27.59,77,48,0.96,PF,1691292097
101,thompson,55.7435,-97.8558,16.09,94,40,2.57,CA,1691291909
102,san luis de la loma,17.2706,-100.8939,27.5,77,93,1.78,MX,1691292098
103,telimele,10.9167,-13.3333,22.19,99,100,0.73,GN,1691292098
104,avarua,-21.2078,-159.775,21.03,88,75,4.63,CK,1691292098
105,arlington,32.7357,-97.1081,36.73,39,0,5.66,US,1691291829
106,margaret river,-33.95,115.0667,14.55,61,99,0.21,AU,1691292099
107,flying fish cove,-10.4217,105.6791,25.82,83,100,6.69,CX,1691292099
108,port elizabeth,-33.918,25.5701,14.16,88,96,3.6,ZA,1691292099
109,katsuura,35.1333,140.3,26.01,79,7,5.54,JP,1691292099
110,salinopolis,-0.6136,-47.3561,26.46,81,17,4.8,BR,1691292100
111,makokou,0.5738,12.8642,21.07,89,32,2.74,GA,1691292100
112,dame-marie,18.5667,-74.4167,27.8,81,42,2.84,HT,1691292100
113,itsa,29.2376,30.7894,28.79,27,0,0.83,EG,1691292100
114,maun,-19.9833,23.4167,11.98,54,0,3.6,BW,1691292100
115,riverside,33.7333,-116.0508,38.44,15,0,1.82,US,1691292101
116,new norfolk,-42.7826,147.0587,14.4,59,97,1.71,AU,1691292101
117,wichita falls,33.9137,-98.4934,33.08,46,0,5.66,US,1691292101
118,sassandra,4.95,-6.0833,23.56,92,100,3.57,CI,1691292101
119,bredasdorp,-34.5322,20.0403,8.91,94,6,2.55,ZA,1691292102
120,nova vicosa,-17.8919,-39.3719,21.14,80,0,2.93,BR,1691291948
121,punta arenas,-53.15,-70.9167,-2.44,71,48,12.85,CL,1691291807
122,mahilyow,53.9139,30.3364,18.89,78,0,3.96,BY,1691292102
123,aasiaat,68.7098,-52.8699,0.82,82,10,2.63,GL,1691292102
124,pacific grove,36.6177,-121.9166,18.47,90,75,3.6,US,1691291907
125,verkhnevilyuysk,63.4453,120.3167,23.28,39,33,3.61,RU,1691292103
126,atafu village,-8.5421,-172.5159,28.45,75,35,3.52,TK,1691292103
127,touros,-5.1989,-35.4608,25.27,76,18,7.07,BR,1691292103
128,nevel'sk,46.6733,141.8633,16.76,74,98,2.63,RU,1691292104
129,talnakh,69.4865,88.3972,22.34,36,21,1.29,RU,1691292104
130,mugia,43.1041,-9.2179,17.17,79,1,9.58,ES,1691292104
131,taiyuan,37.8694,112.5603,28.92,51,0,5.0,CN,1691292104
132,tazacorte,28.629,-17.9293,21.75,87,75,1.03,ES,1691292105
133,west island,-12.1568,96.8225,26.99,78,40,5.66,CC,1691292105
134,weno,7.4515,151.8468,26.76,84,100,12.31,FM,1691292105
135,nuku'alofa,-21.1333,-175.2,22.19,78,100,5.66,TO,1691292105
136,yashkul',46.1711,45.3435,29.55,34,0,3.2,RU,1691292106
137,karratha,-20.7377,116.8463,27.82,30,98,9.31,AU,1691292106
138,tynda,55.1667,124.7167,24.09,39,41,1.96,RU,1691292106
139,nadi,-17.8,177.4167,25.0,83,75,2.06,FJ,1691292106
140,bilibino,68.0546,166.4372,5.86,85,100,2.79,RU,1691292106
141,nabire,-3.3667,135.4833,30.7,57,71,2.98,ID,1691292107
142,berezovyy,51.6667,135.7,25.1,28,0,3.04,RU,1691292107
143,port alfred,-33.5906,26.891,17.88,51,75,1.79,ZA,1691292107
144,hobyo,5.3505,48.5268,24.44,82,17,10.87,SO,1691292108
145,machico,32.7,-16.7667,21.51,81,20,1.54,PT,1691292108
146,vilyuysk,63.7553,121.6247,23.1,37,18,3.42,RU,1691292108
147,chonchi,-42.6128,-73.8092,6.73,96,91,1.07,CL,1691292108
148,el matama,16.7095,33.3565,27.36,57,100,4.94,SD,1691292108
149,mankono,8.0586,-6.1897,21.9,95,100,3.34,CI,1691292109
150,champerico,14.3,-91.9167,28.27,78,63,0.79,GT,1691292109
151,kampene,-3.6,26.6667,22.51,53,74,0.18,CD,1691292109
152,batticaloa,7.7102,81.6924,29.08,66,100,2.38,LK,1691292109
153,port mathurin,-19.6833,63.4167,22.85,63,45,12.12,MU,1691292110
154,searcy,35.2506,-91.7363,27.84,76,0,0.0,US,1691292110
155,qaqortoq,60.7167,-46.0333,5.53,93,1,1.51,GL,1691292110
156,dudinka,69.4058,86.1778,22.57,45,12,2.03,RU,1691292110
157,al'met'yevsk,54.9044,52.3154,20.11,80,46,2.58,RU,1691292111
158,hermanus,-34.4187,19.2345,10.45,87,10,3.64,ZA,1691292111
159,krasnovishersk,60.4078,57.082,17.61,97,100,1.46,RU,1691292111
160,mont-dore,-22.2833,166.5833,23.99,73,52,7.17,NC,1691292111
161,gonzalez,30.5816,-87.2914,26.93,96,0,1.54,US,1691291948
162,prince rupert,54.3161,-130.3201,21.05,80,0,3.09,CA,1691292112
163,wakkanai,45.4094,141.6739,17.99,83,75,8.23,JP,1691292112
164,acarau,-2.8856,-40.12,25.49,84,66,6.73,BR,1691292112
165,ataq,14.5377,46.8319,26.28,47,30,3.27,YE,1691292112
166,kone,-21.0595,164.8658,23.75,55,31,5.22,NC,1691292113
167,calipatria,33.1256,-115.5142,39.25,14,0,2.93,US,1691292113
168,stanley,54.868,-1.6985,9.6,90,0,3.6,GB,1691292113
169,okha,53.5739,142.9478,18.44,58,97,3.02,RU,1691292113
170,al bawiti,28.3492,28.8659,29.38,21,0,2.53,EG,1691292114
171,la'ie,21.6477,-157.9253,29.98,69,2,0.89,US,1691292114
172,isafjordur,66.0755,-23.124,9.78,80,96,2.3,IS,1691292114
173,prince george,53.9166,-122.753,24.69,43,0,1.54,CA,1691292114
174,recani,31.2846,-4.2688,30.57,20,0,1.41,MA,1691292114
175,khanty-mansiysk,61.0042,69.0019,19.06,63,0,1.0,RU,1691292115
176,alta,69.9689,23.2717,9.59,85,75,1.03,NO,1691292115
177,rongelap,11.1635,166.8941,28.51,70,37,7.51,MH,1691292115
178,egilsstadir,65.2653,-14.3948,6.95,87,75,2.57,IS,1691292115
179,hamilton,39.1834,-84.5333,26.67,77,100,5.66,US,1691291842
180,mata-utu,-13.2816,-176.1745,27.87,76,84,2.49,WF,1691292116
181,sabang,5.8933,95.3214,28.36,75,39,5.65,ID,1691292116
182,haiku-pauwela,20.9219,-156.3051,27.01,67,40,10.29,US,1691292116
183,nagqu,31.5,92.0,10.34,65,36,3.99,CN,1691292116
184,san fernando,15.0286,120.6898,32.85,63,96,6.77,PH,1691292117
185,pitimbu,-7.4706,-34.8086,23.33,84,16,4.52,BR,1691292117
186,gonbad-e kavus,37.25,55.1672,27.53,64,38,1.88,IR,1691292117
187,sbiba,35.5433,9.0737,17.69,79,0,2.64,TN,1691292117
188,gamba,-2.65,10.0,20.69,90,42,1.45,GA,1691292117
189,bubaque,11.2833,-15.8333,27.11,84,100,6.95,GW,1691292118
190,bandar abbas,27.1865,56.2808,31.99,74,3,0.0,IR,1691292118
191,sitka,57.0531,-135.33,19.94,77,75,3.09,US,1691292118
192,porto-vecchio,41.591,9.2795,25.74,68,20,8.75,FR,1691292118
193,inongo,-1.95,18.2667,20.48,77,19,1.09,CD,1691292119
194,pisco,-13.7,-76.2167,18.03,77,20,5.14,PE,1691292119
195,ocean shores,46.9737,-124.1563,18.0,96,100,3.6,US,1691291904
196,yarmouth,41.7057,-70.2286,21.68,92,0,0.89,US,1691292120
197,quang ngai,15.1167,108.8,34.88,44,96,3.01,VN,1691292120
198,korla,41.7597,86.1469,32.78,18,67,8.37,CN,1691292120
199,an nuhud,12.7,28.4333,25.65,70,100,3.61,SD,1691292120
200,zandvoort,52.3749,4.5341,14.98,95,75,3.09,NL,1691292121
201,faaa,-17.55,-149.6,27.75,69,75,1.54,PF,1691292121
202,gadzhiyevo,69.2551,33.3362,10.6,95,100,5.99,RU,1691292121
203,hasaki,35.7333,140.8333,35.17,79,8,4.97,JP,1691292121
204,taroa,8.7058,171.2275,28.22,77,57,6.01,MH,1691292122
205,mbanza-ngungu,-5.25,14.8667,18.45,90,3,3.39,CD,1691292122
206,adrar,20.5022,-10.0711,29.7,16,5,4.89,MR,1691292122
207,las lomitas,-24.7096,-60.593,23.78,39,0,3.04,AR,1691292122
208,ust'-kut,56.7938,105.7672,21.83,47,8,0.57,RU,1691292123
209,kourou,5.1552,-52.6478,27.03,89,16,4.04,GF,1691292123
210,st. john's,47.5649,-52.7093,15.44,88,75,4.12,CA,1691291963
211,magadan,59.5667,150.8,22.52,51,7,0.54,RU,1691292123
212,north bend,43.4065,-124.2243,20.14,100,100,3.6,US,1691292124
213,ust-nera,64.5667,143.2,13.37,77,100,3.0,RU,1691292124
214,marabba,12.35,32.1833,22.58,78,100,3.63,SD,1691292124
215,ugoofaaru,5.6667,73.0,27.9,78,67,6.19,MV,1691292124
216,vorgashor,67.5833,63.95,23.04,54,2,3.85,RU,1691292125
217,puerto baquerizo moreno,-0.9,-89.6,23.98,78,83,6.01,EC,1691292125
218,klyuchi,52.2667,79.1667,20.26,77,100,2.03,RU,1691292125
219,rawlins,41.7911,-107.2387,13.94,82,20,5.66,US,1691292125
220,queimadas,-10.9783,-39.6264,18.17,90,4,2.48,BR,1691292126
221,aberystwyth,52.4155,-4.0829,12.59,87,16,5.22,GB,1691292126
222,codrington,-38.2667,141.9667,13.45,64,100,2.54,AU,1691292126
223,mao,39.8885,4.2658,21.31,73,20,1.54,ES,1691292126
224,kruisfontein,-34.0033,24.7314,13.9,76,74,3.61,ZA,1691292127
225,petropavlovsk-kamchatsky,53.0452,158.6483,24.33,47,40,2.0,RU,1691292127
226,angaur state,6.906,134.13,28.75,72,100,6.67,PW,1691292127
227,morondava,-20.2833,44.2833,20.98,62,5,5.46,MG,1691292127
228,ballina,-28.8667,153.5667,19.32,66,16,3.51,AU,1691292128
229,manismata,-2.4667,111.0333,31.43,57,8,2.45,ID,1691292128
230,queenstown,-31.8976,26.8753,9.93,32,7,2.87,ZA,1691292128
231,iskateley,67.6803,53.1512,19.23,81,82,3.63,RU,1691292129
232,dakhla,23.6848,-15.958,19.08,93,0,6.15,EH,1691292129
233,purpe,64.4803,76.6897,23.09,47,2,3.87,RU,1691292129
234,moose jaw,50.4001,-105.5344,21.34,39,45,2.39,CA,1691292129
235,vorkuta,67.5,64.0,23.45,54,1,3.49,RU,1691292129
236,tommot,58.9564,126.2925,25.67,47,12,1.01,RU,1691292130
237,padampur,29.6833,73.6167,33.87,48,26,7.62,IN,1691292130
238,aketi,2.7388,23.7833,21.0,99,59,0.93,CD,1691292130
239,paris,48.8534,2.3488,14.32,88,75,7.2,FR,1691291920
240,fort bragg,35.139,-79.006,27.68,82,0,1.34,US,1691292131
241,saint-pierre,-21.3393,55.4781,20.82,68,0,10.29,RE,1691291904
242,lompoc,34.6391,-120.4579,17.69,94,100,3.09,US,1691292131
243,visakhapatnam,17.69,83.2093,30.63,65,38,4.7,IN,1691292131
244,kamina,-8.7386,24.9906,14.79,51,0,2.11,CD,1691292132
245,udachny,66.4167,112.4,16.92,44,1,6.82,RU,1691292132
246,aguie,13.506,7.7786,23.88,78,100,5.18,NE,1691292132
247,ierapetra,35.01,25.7353,25.08,80,0,0.45,GR,1691292132
248,namibe,-15.1961,12.1522,17.69,79,0,0.57,AO,1691292133
249,panacan,9.2463,118.4082,29.86,70,5,5.18,PH,1691292133
250,east ballina,-28.8667,153.5833,19.33,66,16,3.58,AU,1691292133
251,tuy hoa,13.0833,109.3,34.05,45,83,4.9,VN,1691292133
252,kingston,17.997,-76.7936,29.53,78,20,4.12,JM,1691291950
253,fort mcmurray,56.7268,-111.381,21.77,60,0,3.6,CA,1691292134
254,dwarka,22.2394,68.9678,27.54,81,100,8.87,IN,1691292134
255,hilo,19.7297,-155.09,26.27,88,100,3.6,US,1691292043
256,jatoba,-9.1831,-38.2689,18.69,95,2,3.78,BR,1691292134
257,nar'yan-mar,67.6713,53.087,19.26,81,77,3.72,RU,1691292135
258,cadca,49.435,18.789,18.78,99,100,0.94,SK,1691292135
259,thanh pho uong bi,21.0333,106.7833,29.99,88,100,1.19,VN,1691292135
260,ngereklmadel,7.4883,134.4856,31.05,74,75,7.2,PW,1691292135
261,moree,-29.4667,149.85,21.38,35,2,0.9,AU,1691292136
262,tanout,14.9709,8.8879,26.43,65,97,6.46,NE,1691292136
263,georgetown,5.4112,100.3354,31.64,74,20,4.63,MY,1691292042
264,whakatane,-37.9585,176.9854,13.21,61,10,2.81,NZ,1691292137
265,sandnessjoen,66.0217,12.6316,6.29,71,23,2.24,NO,1691292137
266,tazovsky,67.4667,78.7,17.73,57,0,2.57,RU,1691292137
267,vitry-le-francois,48.7333,4.5833,14.48,95,100,8.6,FR,1691292137
268,mossel bay,-34.1831,22.146,12.96,91,31,3.11,ZA,1691292137
269,prainha,-1.8,-53.48,27.58,56,72,1.21,BR,1691292138
270,qui nhon,13.7667,109.2333,32.76,53,97,5.65,VN,1691292138
271,dunkwa,5.9656,-1.78,22.31,98,98,1.42,GH,1691292138
272,carutapera,-1.195,-46.02,24.43,89,51,2.22,BR,1691292138
273,soio,-6.1349,12.3689,22.02,88,96,3.05,AO,1691292139
274,vilyuchinsk,52.9306,158.4028,25.15,65,17,1.98,RU,1691292139
275,gizo,-8.103,156.8419,26.39,76,97,7.85,SB,1691292139
276,esquel,-42.9,-71.3167,1.57,88,100,2.78,AR,1691291915
277,huron,41.1501,-82.5499,23.16,87,95,4.05,US,1691292140
278,bechar,31.6167,-2.2167,31.18,15,0,3.6,DZ,1691292140
279,saint-philippe,-21.3585,55.7679,20.77,74,93,5.95,RE,1691292140
280,xiamen,24.4798,118.0819,36.03,59,0,3.0,CN,1691292140
281,isangel,-19.55,169.2667,22.74,78,78,9.12,VU,1691292141
282,coquimbo,-29.9533,-71.3436,13.85,100,100,0.51,CL,1691291908
283,bandarbeyla,9.4942,50.8122,25.59,68,62,11.68,SO,1691292141
284,new plymouth,-39.0667,174.0833,14.34,76,100,2.85,NZ,1691292141
285,nurota,40.5614,65.6886,27.92,28,90,3.19,UZ,1691292141
286,keflavik,64.0049,-22.5624,10.95,93,75,3.6,IS,1691292142
287,tosontsengel,48.7567,98.2839,17.4,58,99,2.53,MN,1691292142
288,taltal,-25.4,-70.4833,14.44,84,42,0.93,CL,1691291888
289,micheweni,-4.9667,39.8333,23.41,86,57,5.61,TZ,1691292142
290,cova figueira,14.8905,-24.2934,23.23,81,79,2.48,CV,1691292143
291,trincomalee,8.5711,81.2335,28.34,71,96,7.47,LK,1691292143
292,navirai,-23.065,-54.1906,18.94,44,0,2.72,BR,1691292143
293,sanctuary point,-35.1114,150.629,16.1,58,92,3.04,AU,1691292143
294,cidreira,-30.1811,-50.2056,17.57,95,50,6.61,BR,1691292144
295,suances,43.4334,-4.0434,17.21,95,100,2.06,ES,1691292144
296,egersund,58.4513,5.9997,11.08,87,100,2.42,NO,1691292137
297,kegen,43.0197,79.2203,23.14,27,76,0.42,KZ,1691292145
298,broome,42.2506,-75.833,18.21,89,0,3.09,US,1691292145
299,rocha,-34.4833,-54.3333,12.34,63,92,3.64,UY,1691291906
300,cabinda,-5.55,12.2,22.14,88,83,3.44,AO,1691292145
301,metlili chaamba,32.2667,3.6333,26.27,25,0,2.85,DZ,1691292145
302,merritt,50.1123,-120.7942,26.29,34,100,0.89,CA,1691292146
303,the pas,53.8251,-101.2541,19.01,72,75,3.09,CA,1691292146
304,banda aceh,5.5577,95.3222,30.08,66,28,3.97,ID,1691291974
305,murashi,59.3999,48.9615,18.11,81,94,2.74,RU,1691292146
306,sola,-13.8833,167.55,24.91,80,95,8.02,VU,1691292147
307,benghazi,32.1167,20.0667,26.88,65,7,7.03,LY,1691292081
308,atbasar,51.8,68.3333,23.81,56,23,4.08,KZ,1691292147
309,kudahuvadhoo,2.6708,72.8944,27.42,78,100,3.91,MV,1691291933
310,trairi,-3.2778,-39.2689,25.26,86,57,5.13,BR,1691292148
311,valle nacional,17.7833,-96.3167,24.52,98,100,1.05,MX,1691292148
312,thunder bay,48.4001,-89.3168,14.99,77,20,1.03,CA,1691291918
313,sidi ifni,29.3797,-10.173,20.52,91,57,1.99,MA,1691292148
314,yayva,59.3303,57.2641,20.1,97,100,2.1,RU,1691292149
315,colesberg,-30.72,25.0972,8.59,34,5,2.61,ZA,1691292149
316,al bardiyah,31.7561,25.0865,27.26,61,0,1.74,LY,1691292149
317,nhamunda,-2.1861,-56.7131,26.24,49,17,1.32,BR,1691292149
318,laojunmiao,39.8333,97.7333,25.07,21,0,2.55,CN,1691292150
319,klaksvik,62.2266,-6.589,9.51,80,85,0.94,FO,1691292150
320,turar ryskulov,42.5333,70.3333,28.6,25,100,2.54,KZ,1691292150
321,zeya,53.75,127.2667,27.79,28,1,1.52,RU,1691292150
322,changling,44.2653,124.0005,18.33,86,98,0.45,CN,1691292151
323,san-pedro,4.7485,-6.6363,24.0,90,99,3.68,CI,1691292151
324,yerofey pavlovich,53.9667,121.9667,23.78,34,100,2.67,RU,1691292151
325,grand rapids,42.9634,-85.6681,21.64,73,40,4.63,US,1691292070
326,harnai,30.1005,67.9374,31.04,41,25,1.58,PK,1691292151
327,howard springs,-12.497,131.047,30.95,26,2,6.07,AU,1691292152
328,nelson bay,-32.7167,152.15,17.83,68,100,4.47,AU,1691292152
329,port saint john's,-31.6229,29.5448,17.19,41,0,2.96,ZA,1691292152
330,maryborough,-25.5333,152.7,23.14,46,26,5.08,AU,1691292152
331,kamenica,50.8333,12.9167,14.6,90,100,2.0,DE,1691292153
332,olyokminsk,60.3736,120.4264,29.33,33,48,2.26,RU,1691292153
333,boa vista,2.8197,-60.6733,25.99,83,40,2.06,BR,1691291855
334,rio grande,-32.035,-52.0986,15.53,95,0,4.73,BR,1691292154
335,east london,-33.0153,27.9116,18.52,36,0,3.6,ZA,1691292154
336,calauag,13.9575,122.2875,32.2,56,6,5.32,PH,1691292154
337,beardstown,40.0176,-90.4243,21.55,76,33,2.78,US,1691292154
338,mandalgovi,45.7625,106.2708,23.03,51,7,2.58,MN,1691292154
339,saint-zotique,45.2501,-74.2492,19.92,82,31,2.73,CA,1691292155
340,kristiansund,63.1115,7.732,12.36,82,100,1.03,NO,1691292155
341,badger,64.8,-147.5333,29.17,33,0,0.0,US,1691292155
342,bonthe,7.5264,-12.505,24.71,90,100,3.76,SL,1691292155
343,cam ranh,11.9214,109.1591,34.98,43,0,5.14,VN,1691292155
344,barra de santo antonio,-9.4047,-35.5072,22.6,85,52,4.04,BR,1691292156
345,luderitz,-26.6481,15.1594,13.04,82,5,4.52,NA,1691292156
346,eureka,40.8021,-124.1637,17.89,91,83,0.45,US,1691292156
347,flores da cunha,-29.0289,-51.1817,13.97,95,1,1.55,BR,1691292156
348,antonio enes,-16.2325,39.9086,21.6,86,28,3.83,MZ,1691292157
349,midvagur,62.0511,-7.1939,9.46,93,100,0.51,FO,1691292157
350,carnarvon,-24.8667,113.6333,23.8,57,2,0.48,AU,1691292157
351,severo-yeniseyskiy,60.3725,93.0408,10.4,96,100,1.06,RU,1691292157
352,uturoa,-16.7333,-151.4333,25.99,68,0,2.8,PF,1691292157
353,muskegon,43.3,-86.1334,21.68,75,0,3.09,US,1691292158
354,padang,-0.9492,100.3543,31.03,71,37,1.47,ID,1691292158
355,tindouf,27.6711,-8.1474,25.25,53,0,6.17,DZ,1691292158
356,bovalino,38.149,16.174,23.94,74,23,3.5,IT,1691292158
357,ola,59.5833,151.2833,22.86,51,7,0.9,RU,1691292158
358,richards bay,-28.783,32.0377,16.19,85,0,3.69,ZA,1691292159
359,rio das ostras,-22.5269,-41.945,19.95,95,7,2.93,BR,1691292159
360,bamboo flat,11.7,92.7167,30.05,74,40,7.2,IN,1691292159
361,coos bay,43.3665,-124.2179,20.18,100,100,3.6,US,1691292159
362,novoarkhanhel's'k,48.658,30.8182,24.01,52,0,5.86,UA,1691292160
363,turtas,58.9417,69.1325,19.15,71,81,3.28,RU,1691292160
364,anchorage,61.2181,-149.9003,23.14,56,20,6.69,US,1691292160
365,kolonia town,6.964,158.206,29.06,100,100,2.57,FM,1691292160
366,cooma,-36.2333,149.1333,14.13,42,31,0.27,AU,1691292161
367,ibshaway,29.358,30.6814,28.43,31,0,0.37,EG,1691292161
368,naze,28.3667,129.4833,27.51,93,97,8.83,JP,1691292038
369,akureyri,65.6835,-18.0878,9.96,93,100,0.0,IS,1691292161
370,visby,57.6409,18.296,13.23,94,100,1.54,SE,1691292162
371,spassk-dal'niy,44.5978,132.8211,17.5,95,100,3.04,RU,1691292162
372,bargarh,21.3333,83.6167,26.58,87,100,4.25,IN,1691292162
373,yemetsk,63.4721,41.7941,15.46,96,85,2.24,RU,1691292163
374,sept-iles,50.2001,-66.3821,15.29,99,100,1.54,CA,1691292163
375,mercedes,-34.6515,-59.4307,14.32,73,18,2.88,AR,1691292163
376,kadugli,11.0167,29.7167,21.3,88,100,1.72,SD,1691292163
377,kapit,2.0167,112.9333,29.93,71,87,0.59,MY,1691292163
378,kailua-kona,19.6406,-155.9956,28.06,68,75,4.63,US,1691292164
379,gillette,44.2911,-105.5022,14.41,92,0,3.09,US,1691292164
380,camayenne,9.535,-13.6878,26.48,83,100,4.87,GN,1691292165
381,escarcega,18.6089,-90.7454,25.89,79,28,1.56,MX,1691292165
382,enewetak,11.3474,162.3373,28.69,77,79,6.29,MH,1691292075
383,touba,8.2833,-7.6833,20.68,98,100,3.23,CI,1691292165
384,torghay,49.6339,63.4981,24.91,54,8,5.01,KZ,1691292166
385,chagoda,59.164,35.3285,17.13,81,98,1.61,RU,1691292166
386,mejit,10.2753,170.8646,28.2,76,100,5.7,MH,1691292166
387,tura,25.5198,90.2201,24.43,99,100,1.3,IN,1691292053
388,george town,5.4112,100.3354,31.64,74,20,4.63,MY,1691292049
389,alesund,62.4723,6.1549,14.86,78,100,7.2,NO,1691292167
390,newman,37.3138,-121.0208,31.99,56,0,0.45,US,1691292167
391,malvan,16.0667,73.4667,27.07,81,88,5.9,IN,1691292167
392,ruangwa,-10.0667,38.9333,18.52,91,37,1.8,TZ,1691292168
393,dubinino,55.6192,89.0911,16.94,45,3,2.82,RU,1691292168
394,maragogi,-9.0122,-35.2225,23.3,88,34,4.0,BR,1691292168
395,duvall,47.7423,-121.9857,22.73,77,100,0.45,US,1691292168
396,topes de collantes,21.9139,-80.0189,20.38,85,17,1.51,CU,1691292168
397,quellon,-43.1167,-73.6167,7.14,81,75,2.57,CL,1691292169
398,bayside,40.8424,-124.0637,17.86,91,100,1.54,US,1691292169
399,sinabang,2.4803,96.3801,28.9,72,76,0.35,ID,1691292169
400,ishigaki,24.3448,124.1572,31.07,84,75,4.12,JP,1691292169
401,belvedere marittimo,39.6179,15.8617,18.95,78,46,5.19,IT,1691292170
402,chegdomyn,51.1167,133.0167,25.2,28,0,1.61,RU,1691292170
403,popondetta,-8.7537,148.2534,29.96,50,94,2.85,PG,1691292170
404,tchibanga,-2.85,11.0333,18.3,93,31,1.03,GA,1691292170
405,san juan de miraflores,-12.1629,-76.9635,20.29,80,93,4.0,PE,1691292170
406,kaka,37.3482,59.6143,31.18,31,0,5.78,TM,1691292171
407,karauli,26.5,77.0167,28.64,72,82,6.66,IN,1691291990
408,mhamid,29.82,-5.72,33.28,11,2,1.95,MA,1691292171
409,goundam,16.4145,-3.6708,31.51,42,100,6.35,ML,1691292171
410,bradley gardens,40.5629,-74.6546,24.47,81,0,1.54,US,1691292171
411,charters towers,-20.1,146.2667,24.71,31,0,6.45,AU,1691292172
412,elliot,-31.3333,27.85,7.52,29,1,3.46,ZA,1691292172
413,ebon,4.582,168.6964,28.42,77,33,5.0,MH,1691292075
414,lhuentse,27.6679,91.1839,24.3,93,100,1.48,BT,1691292172
415,damnoen saduak,13.5182,99.9547,34.46,72,100,3.67,TH,1691292173
416,xai-xai,-25.0519,33.6442,15.69,83,6,0.37,MZ,1691292173
417,portomaggiore,44.6985,11.8068,19.28,89,3,1.8,IT,1691292173
418,qujing,25.4833,103.7833,23.45,69,88,1.64,CN,1691292173
419,natal,-5.795,-35.2094,24.12,94,40,2.57,BR,1691291892
420,camarinas,43.1311,-9.1817,17.18,79,3,9.2,ES,1691292174
421,margate,51.3813,1.3862,12.61,86,98,6.71,GB,1691292174
422,tvoroyri,61.5556,-6.8111,10.71,83,76,0.98,FO,1691292174
423,sitia,35.2,26.0986,24.99,82,0,1.0,GR,1691292174
424,axim,4.8699,-2.2405,23.81,91,100,4.26,GH,1691292175
425,alice springs,-23.7,133.8833,20.75,43,0,4.12,AU,1691291957
426,titel,45.2061,20.2944,17.3,95,100,1.79,RS,1691292175
427,medgidia,44.25,28.2833,23.58,96,1,2.58,RO,1691292175
428,chela,34.069,104.4619,20.71,76,97,1.21,CN,1691292176
429,sterling,39.0062,-77.4286,24.57,81,75,2.68,US,1691292000
430,port augusta,-32.5,137.7667,15.75,41,38,1.79,AU,1691291959
431,djibo,14.1022,-1.6306,25.79,80,99,7.46,BF,1691292177
432,les avirons,-21.2418,55.3394,19.05,68,0,10.29,RE,1691292177
433,demidov,55.2706,31.515,18.39,88,0,2.82,RU,1691292177
434,daru,-9.0763,143.2092,25.88,71,54,6.84,PG,1691292177
435,rajur,20.1167,78.9167,26.86,76,58,7.06,IN,1691292178
436,howrah,22.5892,88.3103,28.0,89,100,3.09,IN,1691292178
437,vernon,50.2581,-119.2691,28.29,39,77,0.0,CA,1691292178
438,zouerate,22.7187,-12.4521,25.06,35,4,4.09,MR,1691292178
439,sultanah,24.4926,39.5857,29.25,11,0,3.6,SA,1691292178
440,khandyga,62.6667,135.6,25.14,35,90,3.33,RU,1691292179
441,brookings,44.3114,-96.7984,18.43,97,40,7.2,US,1691292099
442,farasan,16.7022,42.1183,31.01,73,80,4.97,SA,1691292179
443,nemuro,43.3236,145.575,14.56,97,100,4.71,JP,1691292180
444,warmbad,-28.45,18.7333,15.84,20,2,3.16,NA,1691292079
445,ruteng,-8.6136,120.4721,23.71,47,39,0.34,ID,1691292180
446,hadibu,12.65,54.0333,25.66,80,34,12.05,YE,1691292180
447,tafuna,-14.3358,-170.72,29.97,84,40,3.6,AS,1691292180
448,puerto carreno,6.189,-67.4859,24.31,92,100,2.01,CO,1691292181
449,kapa'a,22.0752,-159.319,29.18,72,0,6.17,US,1691292181
450,usinsk,65.9939,57.5281,19.36,88,100,2.47,RU,1691292181
451,glendive,47.1053,-104.7125,21.79,56,75,3.09,US,1691292181
452,kodiak,57.79,-152.4072,12.73,88,100,2.57,US,1691291925
453,hingoli,19.7167,77.15,25.58,78,76,5.75,IN,1691292182
454,demba,-5.51,22.2667,19.08,44,4,1.14,CD,1691292182
455,lorengau,-2.0226,147.2712,26.49,83,100,5.93,PG,1691292182
456,nchelenge,-9.3451,28.734,15.89,54,0,3.43,ZM,1691292183
457,dzilam gonzalez,21.2833,-88.9333,27.11,80,3,3.13,MX,1691292183
458,shalya,57.2471,58.7298,18.03,93,86,2.63,RU,1691292184
459,san antonio de pale,-1.4014,5.6325,22.96,79,34,5.15,GQ,1691292184
460,gombong,-7.6072,109.5142,28.82,61,77,2.69,ID,1691292184
461,mocksville,35.894,-80.5614,25.01,89,1,1.78,US,1691292184
462,nantucket,41.2835,-70.0995,21.68,100,0,1.54,US,1691292185
463,selkirk,50.1436,-96.8845,24.04,79,100,3.16,CA,1691291909
464,lycksele,64.5954,18.6735,5.93,100,23,0.0,SE,1691292185
465,hanzhong,33.0728,107.0303,29.68,73,32,0.51,CN,1691292185
466,baotou,40.6522,109.8222,30.85,33,98,3.33,CN,1691292185
467,sovetskaya gavan',48.9723,140.2878,15.34,84,100,0.61,RU,1691292186
468,huarmey,-10.0681,-78.1522,19.04,84,88,4.83,PE,1691292186
469,siwa oasis,29.2041,25.5195,30.23,29,0,1.89,EG,1691292186
470,owando,-0.4819,15.8999,25.16,64,89,0.97,CG,1691292187
471,dombarovskiy,50.7587,59.5386,22.46,62,33,4.57,RU,1691292187
472,bardai,11.65,7.2333,22.15,89,100,2.96,NG,1691292187
473,filadelfia,39.9523,-75.1638,25.14,74,20,1.54,US,1691292188
474,dryden,49.7833,-92.7503,23.16,68,100,1.54,CA,1691292188
475,ialibu,-6.2821,143.9935,17.9,70,99,2.39,PG,1691292188
476,omis,43.4447,16.6886,19.96,82,16,1.43,HR,1691292188
477,nova sintra,14.8667,-24.7167,23.07,79,31,1.98,CV,1691292189
478,yeppoon,-23.1333,150.7333,23.88,59,6,6.13,AU,1691292189
479,brisas de zicatela,15.8369,-97.0419,28.29,61,40,2.06,MX,1691292189
480,porto novo,6.4965,2.6036,24.13,91,100,3.77,BJ,1691292148
481,imbituba,-28.24,-48.6703,17.54,97,66,2.73,BR,1691292189
482,astrakhan,46.3497,48.0408,27.93,51,0,1.0,RU,1691292190
483,moyynkum,44.2914,72.9469,30.84,22,100,3.85,KZ,1691292190
484,yokadouma,3.5167,15.05,20.71,96,99,0.8,CM,1691292190
485,nafplio,37.5683,22.8053,27.2,68,0,3.48,GR,1691292191
486,sampit,-2.5333,112.95,31.54,59,28,1.98,ID,1691292191
487,ubinskoye,55.3068,79.6802,19.39,54,0,4.6,RU,1691292191
488,grand baie,-20.0182,57.5802,21.36,77,2,2.68,MU,1691292191
489,petrozavodsk,61.7849,34.3469,16.7,88,96,1.0,RU,1691292155
490,ketchikan,55.3422,-131.6461,23.26,60,0,2.06,US,1691292192
491,nebbi,2.4783,31.0889,18.93,85,100,1.72,UG,1691292192
492,kalanwali,29.85,74.95,34.52,44,80,4.99,IN,1691292192
493,gunjur,13.2019,-16.7339,27.04,94,40,0.0,GM,1691292193
494,santa marta,11.2408,-74.199,29.94,74,98,4.92,CO,1691291903
495,tabou,4.423,-7.3528,24.3,85,99,4.83,CI,1691292193
496,cole harbour,44.6724,-63.4751,17.77,95,29,1.54,CA,1691292193
497,mina clavero,-31.721,-65.0062,14.69,69,0,3.17,AR,1691292194
498,murzuq,25.9155,13.9184,32.15,14,0,2.9,LY,1691292194
499,mendoza,-32.8908,-68.8272,12.74,41,0,0.0,AR,1691292034
500,beichengqu,40.4394,113.1536,27.92,40,25,3.68,CN,1691292194
501,belchatow,51.3688,19.3567,18.32,98,100,2.48,PL,1691292195
502,harper,4.375,-7.7169,24.34,85,94,4.88,LR,1691292195
503,shibirghan,36.6676,65.7529,32.04,20,0,6.56,AF,1691292195
504,santo antonio,-6.3106,-35.4789,20.83,96,7,3.74,BR,1691292195
505,guiuan,11.0333,125.7247,28.87,72,1,6.27,PH,1691292196
506,selfoss,63.9331,-20.9971,10.58,95,100,1.24,IS,1691292196
507,qamdo,31.1667,97.2333,8.6,76,100,1.49,CN,1691292196
508,mahriz,31.5917,54.4318,27.29,17,0,0.93,IR,1691292196
509,arraial do cabo,-22.9661,-42.0278,20.66,91,1,5.41,BR,1691292197
510,svetlyy,54.675,20.1347,18.03,98,100,7.16,RU,1691292197
511,tofol,5.3248,163.0078,30.88,70,100,1.54,FM,1691292197
512,al abyar,32.19,20.5965,23.87,72,60,5.93,LY,1691292198
513,fada,9.5667,8.3,20.49,96,100,1.51,NG,1691292198
514,el nido,11.1858,119.3956,29.49,70,7,6.01,PH,1691292198
515,arteche,12.2645,125.4048,32.98,54,1,4.38,PH,1691292198
516,sydney mines,46.2367,-60.2177,17.88,93,100,5.14,CA,1691292199
517,luorong,24.4058,109.6086,30.44,71,66,2.15,CN,1691292199
518,ingeniero jacobacci,-41.3427,-69.5448,4.64,52,2,3.27,AR,1691292199
519,grande prairie,55.1667,-118.8027,22.1,49,75,2.57,CA,1691292199
520,ribeira brava,32.65,-17.0667,21.51,79,6,1.4,PT,1691292200
521,port antonio,18.18,-76.4612,29.95,77,0,3.39,JM,1691292200
522,tambau,-21.705,-47.2744,16.53,37,0,0.99,BR,1691292200
523,anori,-3.7728,-61.6442,25.72,63,63,0.41,BR,1691292200
524,santiago de cao,-7.9589,-79.2392,22.07,83,100,4.63,PE,1691292201
525,la ronge,55.1001,-105.2842,20.14,64,75,2.57,CA,1691292201
526,turaif,31.6725,38.6637,22.14,49,0,3.09,SA,1691292201
527,nadym,65.5333,72.5167,23.83,40,7,2.0,RU,1691292201
528,vadso,70.0744,29.7487,11.49,82,100,2.57,NO,1691292202
529,tshela,-4.9833,12.9333,20.77,86,97,1.3,CD,1691292202
530,nichlaul,27.3167,83.7333,29.73,76,94,0.26,IN,1691292202
531,charlotte amalie,18.3419,-64.9307,28.85,84,40,3.09,VI,1691292052
532,crete,35.1558,24.895,18.56,84,0,3.18,GR,1691292203
533,letlhakeng,-24.0944,25.0298,8.02,55,12,2.96,BW,1691292203
534,tiverton,50.9,-3.4833,12.8,92,1,2.24,GB,1691292203
535,parras de la fuente,25.4167,-102.1833,27.39,28,5,6.9,MX,1691292204
536,hami,42.8,93.45,34.09,14,11,3.68,CN,1691292204
537,yumbe,3.4651,31.2469,17.39,95,100,0.37,UG,1691292204
538,uzgen,40.7699,73.3007,27.13,18,30,0.23,KG,1691292205
539,pontianak,-0.0333,109.3333,28.99,74,75,2.57,ID,1691292205
540,sint michiel liber,12.15,-68.9833,28.9,84,1,6.17,CW,1691292205
541,san patricio,28.017,-97.5169,29.92,75,60,6.18,US,1691292206
542,naifaru,5.4444,73.3657,27.85,78,65,6.07,MV,1691292078
543,turbat,26.0023,63.044,28.05,74,100,3.29,PK,1691292206
544,kezmarok,49.1357,20.4335,17.41,98,100,1.54,SK,1691292206
545,kita,13.0349,-9.4895,23.01,93,98,1.28,ML,1691292207
546,loch garman,52.3342,-6.4575,12.16,100,19,3.13,IE,1691292207
547,puerto aysen,-45.4,-72.7,2.11,97,71,2.06,CL,1691292207
548,malango,-2.9627,119.9001,26.15,67,50,2.11,ID,1691292207
549,quesnel,52.9999,-122.5029,27.28,32,0,4.12,CA,1691292208
550,santa elena de uairen,4.6167,-61.1333,19.76,91,37,1.05,VE,1691292208
551,andergrove,-21.0833,149.1833,24.25,65,0,7.9,AU,1691292208
552,lafiagi,8.8667,5.4167,22.86,97,93,1.78,NG,1691292208
553,el granada,37.5027,-122.4694,21.4,82,20,9.77,US,1691292209
554,kaa-khem,51.6833,94.7333,19.69,71,95,0.73,RU,1691292209
555,kuusamo,65.9667,29.1833,11.19,94,35,1.58,FI,1691292209
556,chibougamau,49.9168,-74.3659,15.79,67,100,2.57,CA,1691292209
557,gua musang,4.8823,101.9644,30.19,66,27,1.05,MY,1691292210
558,amungan,15.3652,119.9582,28.99,78,69,4.99,PH,1691292210
559,yangjiang,21.85,111.9667,30.24,67,92,3.88,CN,1691292210
560,palmer,42.1584,-72.3287,21.25,82,0,1.54,US,1691292210
561,imperatriz,-5.5264,-47.4917,26.03,69,0,0.0,BR,1691292211
562,port douglas,-16.4833,145.4667,21.67,79,66,7.21,AU,1691292023
563,colonia menno,-22.3667,-59.8167,24.97,35,0,4.54,PY,1691292212
564,paramonga,-10.6667,-77.8333,18.58,84,92,4.85,PE,1691292212
565,sisimiut,66.9395,-53.6735,6.54,82,8,0.66,GL,1691292212
